{"at":"2026-06-01T14:14:06.576Z","places":[{"id":"d0eac388-aaac-4f85-9800-7320fa462032","facility_type":"public-bath","bath_policy":"female-only","country_code":"KR","city":null,"latitude":37.5181498,"longitude":127.0181435,"coordinate_source":"naver"},{"id":"50e2c66d-6f82-4064-ad8a-4fbf4a9baeaa","facility_type":"small-bath","bath_policy":"gender-bath","country_code":"KR","city":null,"latitude":37.5260431,"longitude":127.0006091,"coordinate_source":"naver"},{"id":"06dd629e-06f7-43cb-b5e7-904b2b7314be","facility_type":"small-bath","bath_policy":"gender-bath","country_code":"JP","city":"Kyoto","latitude":34.9995704,"longitude":135.7543304,"coordinate_source":"google"},{"id":"5dc18d60-72d1-4c9f-ac2a-f604b11f9399","facility_type":"public-bath","bath_policy":"gender-bath","country_code":"JP","city":"Toyama","latitude":36.6768537,"longitude":137.237716,"coordinate_source":"google"},{"id":"c8774a4a-2b01-4218-a535-45d3b52324c1","facility_type":"public-bath","bath_policy":"gender-bath","country_code":"KR","city":null,"latitude":37.4775719,"longitude":127.0442278,"coordinate_source":"naver"},{"id":"87702ab3-6296-4789-91ea-8493d91a2de7","facility_type":"public-bath","bath_policy":"gender-bath","country_code":"KR","city":null,"latitude":37.5691287,"longitude":127.0855322,"coordinate_source":"naver"},{"id":"ae8fbc09-4140-4598-a622-666321a3841f","facility_type":"public-bath","bath_policy":"gender-bath","country_code":"KR","city":"Changwon-si","latitude":35.2201375,"longitude":128.684076,"coordinate_source":"naver"},{"id":"a7c48191-2334-42be-bc9a-da5c71610126","facility_type":"hotel-spa","bath_policy":"mixed","country_code":"DE","city":"Berlin","latitude":52.5286101,"longitude":13.3595874,"coordinate_source":"google"},{"id":"a39ef875-2354-401b-9c02-ce961e74744d","facility_type":"public-bath","bath_policy":"gender-bath","country_code":"KR","city":null,"latitude":37.5708889,"longitude":127.0205583,"coordinate_source":"naver"},{"id":"f8fd35dd-4eff-413e-85ec-e9b337cc3798","facility_type":"hotel-spa","bath_policy":"gender-bath","country_code":"KR","city":"Gyeongju","latitude":35.8399949,"longitude":129.2856989,"coordinate_source":"naver"},{"id":"f329d84c-93e9-4e7e-9632-8c96ea7e46ed","facility_type":"hotel-spa","bath_policy":"mixed","country_code":"US","city":"New York","latitude":40.7181473,"longitude":-74.00482,"coordinate_source":"google"},{"id":"272c8e5e-99bb-4dcc-9845-d2ffb9360208","facility_type":"small-bath","bath_policy":"gender-bath","country_code":"KR","city":null,"latitude":37.4712968,"longitude":126.6947837,"coordinate_source":"naver"},{"id":"bc17f4cb-e287-47d4-a62b-9a30bf31c32a","facility_type":"public-bath","bath_policy":"gender-bath","country_code":"KR","city":"Paju-si","latitude":37.7089364,"longitude":126.7043262,"coordinate_source":"naver"},{"id":"ee2b63df-4c0d-478a-85d3-1fca698cc43f","facility_type":"small-bath","bath_policy":"gender-bath","country_code":"KR","city":null,"latitude":37.5400478,"longitude":127.0976864,"coordinate_source":"naver"},{"id":"9588f7cc-63d1-4ba0-abd0-53afaae6bb49","facility_type":"public-bath","bath_policy":"gender-bath","country_code":"KR","city":null,"latitude":37.5064001,"longitude":127.0482775,"coordinate_source":"naver"},{"id":"02f6aefe-30a8-4839-9c9b-85ee9fd36f7e","facility_type":"small-bath","bath_policy":"mixed","country_code":"DE","city":"Berlin","latitude":52.5314129,"longitude":13.4117439,"coordinate_source":"google"},{"id":"ec2c5821-f2b8-4537-b405-98c430fa5769","facility_type":"public-bath","bath_policy":"gender-bath","country_code":"KR","city":"Suwon","latitude":37.2994568,"longitude":126.9716659,"coordinate_source":"naver"},{"id":"0130e29a-430a-49f0-afdf-4f414cd288f8","facility_type":"private-sauna","bath_policy":"gender-bath","country_code":"JP","city":"Hiroshima","latitude":34.3949686,"longitude":132.4474664,"coordinate_source":"google"},{"id":"f73d775a-7b46-423e-970b-10c9c294541e","facility_type":"small-bath","bath_policy":"gender-bath","country_code":"KR","city":null,"latitude":37.5493312,"longitude":126.9792741,"coordinate_source":"naver"},{"id":"0c80856e-974c-481c-9190-556143d7dfa1","facility_type":"private-sauna","bath_policy":"gender-bath","country_code":"JP","city":"Fukuoka","latitude":33.5974589,"longitude":130.4071056,"coordinate_source":"google"},{"id":"82cc6aa1-0573-466b-a5aa-f6370e003884","facility_type":"hotel-spa","bath_policy":"male-only","country_code":"KR","city":null,"latitude":37.5455592,"longitude":126.9715771,"coordinate_source":"naver"},{"id":"bffe68b0-ddd5-4d78-b15d-6c8d014636dd","facility_type":"hotel-spa","bath_policy":"mixed","country_code":"JP","city":"Kyonan","latitude":35.1081808,"longitude":139.8446091,"coordinate_source":"google"},{"id":"f3f922b3-94b3-4bb2-9085-ac7d1b5cb99d","facility_type":"public-bath","bath_policy":"mixed","country_code":"JP","city":"Yamanakako","latitude":35.4149566,"longitude":138.8956272,"coordinate_source":"google"},{"id":"7e41a924-5341-47df-9292-411dd1750941","facility_type":"public-bath","bath_policy":"mixed","country_code":"FI","city":"Vanda","latitude":60.31274,"longitude":25.1115499,"coordinate_source":"google"},{"id":"210ab5eb-2f11-4acc-abec-745659e86602","facility_type":"public-bath","bath_policy":"mixed","country_code":"FI","city":"Tampere","latitude":61.5155119,"longitude":23.7871035,"coordinate_source":"google"},{"id":"273d4c33-bc2f-44ad-8c56-be9fe02585f3","facility_type":"public-bath","bath_policy":"mixed","country_code":"FI","city":"Helsinki","latitude":60.1520656,"longitude":24.9302737,"coordinate_source":"google"},{"id":"b8211df0-7c6a-4a78-b870-06dc5c83f540","facility_type":"public-bath","bath_policy":"gender-bath","country_code":"JP","city":"Tokorozawa","latitude":35.8116797,"longitude":139.4303495,"coordinate_source":"google"},{"id":"b6aaadfd-8835-4fcc-bb66-62fbea4c3402","facility_type":"public-bath","bath_policy":"mixed","country_code":"US","city":"New York","latitude":40.7404021,"longitude":-73.9924415,"coordinate_source":"google"},{"id":"22c04b88-eee9-4e64-9bb3-8aa331a77208","facility_type":"public-bath","bath_policy":"gender-bath","country_code":"FI","city":"Tampere","latitude":61.5020479,"longitude":23.7199164,"coordinate_source":"google"},{"id":"94b7a83a-d1da-42df-9115-1b2a30d2efc5","facility_type":"public-bath","bath_policy":"mixed","country_code":"JP","city":"Futtsu","latitude":35.2081027,"longitude":139.9143138,"coordinate_source":"google"},{"id":"0eca346f-c889-4abe-84ce-200ffb5a92c0","facility_type":"public-bath","bath_policy":"male-only","country_code":"JP","city":"Nagoya","latitude":35.1551829,"longitude":136.9003387,"coordinate_source":"google"},{"id":"ada7d237-fb1c-4b16-b7ac-8bcdc1ff49fb","facility_type":"small-bath","bath_policy":"gender-bath","country_code":"JP","city":"Shibuya","latitude":35.6530753,"longitude":139.7095256,"coordinate_source":"google"},{"id":"0e03904b-60c1-4c74-912a-31e1f1c22ef0","facility_type":"hotel-spa","bath_policy":"mixed","country_code":"DE","city":"Erding","latitude":48.290231,"longitude":11.8885776,"coordinate_source":"google"},{"id":"6e6c9999-03f8-495a-a63c-3e28f14efb85","facility_type":"small-bath","bath_policy":"gender-bath","country_code":"KR","city":"Cheongju","latitude":36.6320654,"longitude":127.44005,"coordinate_source":"naver"},{"id":"c0bd8983-6e5f-49f7-b17d-b2ae4a9d5c17","facility_type":"public-bath","bath_policy":"mixed","country_code":"JP","city":"Shiriuchi","latitude":41.5957056,"longitude":140.2945292,"coordinate_source":"google"},{"id":"ca118a6e-453d-4240-a4ba-d7f36b12187a","facility_type":"hotel-spa","bath_policy":"male-only","country_code":"JP","city":"Nagoya","latitude":35.1663956,"longitude":136.9056817,"coordinate_source":"google"},{"id":"6ed6bb25-543e-4fdd-8be1-96e5099f1721","facility_type":"public-bath","bath_policy":"male-only","country_code":"JP","city":"Shinagawa City","latitude":35.6068912,"longitude":139.7333533,"coordinate_source":"google"},{"id":"95a65323-11ae-4251-86c9-7f115ba83911","facility_type":"hotel-spa","bath_policy":"gender-bath","country_code":"JP","city":"Misawa","latitude":40.6616861,"longitude":141.3554479,"coordinate_source":"google"},{"id":"dc98375b-d9f0-4f3c-9256-6df1bfb90b45","facility_type":"hotel-spa","bath_policy":"gender-bath","country_code":"KR","city":"서귀포시","latitude":33.3030342,"longitude":126.3923592,"coordinate_source":"naver"},{"id":"49bcf998-94e3-41cc-b756-c18a07b3f223","facility_type":"public-bath","bath_policy":"male-only","country_code":"JP","city":"Minato City","latitude":35.673291,"longitude":139.7377125,"coordinate_source":"google"},{"id":"01892d98-8e3c-4d86-aa61-5a2d6ec9b3d7","facility_type":"small-bath","bath_policy":"gender-bath","country_code":"JP","city":"Kyoto","latitude":34.9929641,"longitude":135.7656753,"coordinate_source":"google"},{"id":"0194d562-609f-46c0-8310-674b3e7593f7","facility_type":"public-bath","bath_policy":"mixed","country_code":"JP","city":"Motobu","latitude":26.64191,"longitude":127.9520747,"coordinate_source":"google"},{"id":"75501e34-7d98-4dd4-893c-9258688dfa79","facility_type":"small-bath","bath_policy":"gender-bath","country_code":"KR","city":"Osan","latitude":37.1286137,"longitude":127.0676411,"coordinate_source":"naver"},{"id":"5b79400d-f1a2-4319-b4e7-714d7f0dfb8e","facility_type":"public-bath","bath_policy":"mixed","country_code":"JP","city":"Shinano","latitude":36.8254365,"longitude":138.2046526,"coordinate_source":"google"},{"id":"3b2f385c-ce86-465e-bb81-dcf42950a33e","facility_type":"public-bath","bath_policy":"gender-bath","country_code":"JP","city":"Kumamoto","latitude":32.7853283,"longitude":130.7023944,"coordinate_source":"google"},{"id":"908c8ab7-7ee3-4593-80f9-42c7dac2d9f8","facility_type":"public-bath","bath_policy":"gender-bath","country_code":"JP","city":"Shibuya","latitude":35.656061,"longitude":139.700851,"coordinate_source":"google"},{"id":"a5414757-8ad8-4d80-a18b-070365715b23","facility_type":"public-bath","bath_policy":"gender-bath","country_code":"JP","city":"Yokohama","latitude":35.4645561,"longitude":139.6246488,"coordinate_source":"google"},{"id":"346d8006-958e-491e-9cfd-11f66ace5299","facility_type":"private-sauna","bath_policy":"female-only","country_code":"JP","city":"Minato City","latitude":35.6674248,"longitude":139.7297122,"coordinate_source":"google"},{"id":"5051b444-0ed3-4188-9cf0-c96b5c351585","facility_type":"public-bath","bath_policy":"male-only","country_code":"JP","city":"Osaka","latitude":34.6762886,"longitude":135.5015919,"coordinate_source":"google"},{"id":"122eb42f-123d-4cff-b665-641890dc2a8b","facility_type":"hotel-spa","bath_policy":"gender-bath","country_code":"KR","city":"Yesan-gun","latitude":36.6939929,"longitude":126.656475,"coordinate_source":"naver"},{"id":"5cf44bec-80f8-4ec2-9071-f91d778b7bdd","facility_type":"hotel-spa","bath_policy":"gender-bath","country_code":"JP","city":"Takeo","latitude":33.1825224,"longitude":130.0163457,"coordinate_source":"google"},{"id":"676e4785-368b-47e6-8597-3c52867cbb5c","facility_type":"public-bath","bath_policy":"gender-bath","country_code":"KR","city":null,"latitude":37.53492,"longitude":127.091553,"coordinate_source":"naver"},{"id":"44cb9251-f776-4d02-8f25-47ca4d66baf3","facility_type":"public-bath","bath_policy":"gender-bath","country_code":"JP","city":"Sendai","latitude":38.3530226,"longitude":140.8768169,"coordinate_source":"google"},{"id":"71419a5e-fa58-4720-a1a3-b31469060381","facility_type":"hotel-spa","bath_policy":"gender-bath","country_code":"JP","city":"Shari","latitude":44.0720332,"longitude":144.9954182,"coordinate_source":"google"},{"id":"b25808c0-1cff-4c90-a13b-70d847eb96ce","facility_type":"hotel-spa","bath_policy":"gender-bath","country_code":"JP","city":"Noboribetsu","latitude":42.4919542,"longitude":141.1418679,"coordinate_source":"google"},{"id":"9f22876a-bb94-4a6c-a537-3fcf8a1cab78","facility_type":"public-bath","bath_policy":"male-only","country_code":"JP","city":"Okayama","latitude":34.6322857,"longitude":133.9297627,"coordinate_source":"google"},{"id":"19f0620e-792a-4932-a5d1-6fbd8ae4f6ea","facility_type":"hotel-spa","bath_policy":"mixed","country_code":"DE","city":"Berlin","latitude":52.5122679,"longitude":13.4088537,"coordinate_source":"google"},{"id":"c0490635-2f7f-4234-acd5-12552acfe011","facility_type":"special","bath_policy":"gender-bath","country_code":"JP","city":"Kyotango","latitude":35.6247399,"longitude":135.0642816,"coordinate_source":"google"},{"id":"2a0571a3-e91c-46bf-b47f-abec3312337f","facility_type":"hotel-spa","bath_policy":"gender-bath","country_code":"JP","city":"Kokonoe","latitude":33.1125069,"longitude":131.2268319,"coordinate_source":"google"},{"id":"58b4bb93-cf75-4195-8a2a-996a5f894cc1","facility_type":"public-bath","bath_policy":"gender-bath","country_code":"KR","city":"Cheju","latitude":33.4160422,"longitude":126.2642832,"coordinate_source":"naver"},{"id":"3bb75020-b6c8-479c-916c-7c08a5ad21c9","facility_type":"public-bath","bath_policy":"male-only","country_code":"KR","city":null,"latitude":37.5184361,"longitude":126.9770515,"coordinate_source":"naver"},{"id":"32920bd6-49c8-4660-8db2-5f27c9bf19c0","facility_type":"special","bath_policy":"gender-bath","country_code":"KR","city":"Gangneung","latitude":37.8494213,"longitude":128.8073403,"coordinate_source":"naver"},{"id":"1c8ecb4a-f445-484f-9b29-aa5031f50a7a","facility_type":"small-bath","bath_policy":"gender-bath","country_code":"KR","city":null,"latitude":35.0933863,"longitude":129.0447966,"coordinate_source":"naver"},{"id":"15a8b840-9dcc-48b0-b5bd-d3ee86db5c61","facility_type":"public-bath","bath_policy":"gender-bath","country_code":"KR","city":"Cheju","latitude":33.4788364,"longitude":126.4683171,"coordinate_source":"naver"},{"id":"4926fac9-01c2-4ea5-8657-1e7b8ff376df","facility_type":"special","bath_policy":"gender-bath","country_code":"KR","city":null,"latitude":37.4441625,"longitude":126.4045572,"coordinate_source":"naver"},{"id":"fa8ca9dc-5987-4db1-8468-2a2011a6a8b4","facility_type":"public-bath","bath_policy":"gender-bath","country_code":"KR","city":null,"latitude":37.4980888,"longitude":127.134399,"coordinate_source":"naver"},{"id":"69786b8a-804d-4773-bf07-921bc92871ce","facility_type":"public-bath","bath_policy":"gender-bath","country_code":"KR","city":null,"latitude":36.3556006,"longitude":127.344583,"coordinate_source":"naver"},{"id":"4ea45563-6c82-4e87-b9a5-db102aa88ed7","facility_type":"special","bath_policy":"gender-bath","country_code":"KR","city":null,"latitude":37.435628,"longitude":126.4570723,"coordinate_source":"naver"},{"id":"35c8b2bc-7a4a-4cb0-9596-505c267cccfc","facility_type":"hotel-spa","bath_policy":"gender-bath","country_code":"JP","city":"Izu","latitude":34.8894996,"longitude":138.927303,"coordinate_source":"google"},{"id":"7125e831-8b99-4843-8494-0f489b9990b6","facility_type":"hotel-spa","bath_policy":"gender-bath","country_code":"JP","city":"Minakami","latitude":36.7854796,"longitude":138.9574947,"coordinate_source":"google"},{"id":"df8ce37c-4a79-4e9a-9d36-c5a5d8e44b99","facility_type":"hotel-spa","bath_policy":"gender-bath","country_code":"JP","city":"Nakashibetsu","latitude":43.5876787,"longitude":144.7223483,"coordinate_source":"google"},{"id":"b90b9470-d9ad-499b-93c2-edab9fdbfed7","facility_type":"small-bath","bath_policy":"gender-bath","country_code":"KR","city":"Cheonan","latitude":36.8177059,"longitude":127.1624448,"coordinate_source":"naver"},{"id":"40046f1e-fa31-4b9d-8e63-dc9dc5ed9adf","facility_type":"public-bath","bath_policy":"gender-bath","country_code":"KR","city":"서울특별시","latitude":37.5065841,"longitude":127.0653267,"coordinate_source":"naver"},{"id":"2da01557-42e5-4bf6-b1cf-7e7a95d0c1be","facility_type":"private-sauna","bath_policy":"female-only","country_code":"KR","city":null,"latitude":37.5442018,"longitude":126.9694199,"coordinate_source":"naver"},{"id":"11c6e15b-e3ac-4acc-9ebc-95cbcf8ae0fd","facility_type":"hotel-spa","bath_policy":"gender-bath","country_code":"JP","city":"Osaka","latitude":34.667985,"longitude":135.506326,"coordinate_source":"google"},{"id":"11c8d769-db13-4130-b80a-b316185f297a","facility_type":"public-bath","bath_policy":"gender-bath","country_code":"KR","city":null,"latitude":37.4909741,"longitude":127.115929,"coordinate_source":"naver"},{"id":"e48b7d91-ab77-46c3-a172-089fc008c766","facility_type":"public-bath","bath_policy":"mixed","country_code":"JP","city":"Omihachiman","latitude":35.1223471,"longitude":136.0989433,"coordinate_source":"google"},{"id":"aaaab99f-5f19-408a-a27d-aade23e5d3ba","facility_type":"public-bath","bath_policy":"gender-bath","country_code":"JP","city":"Sanuki","latitude":34.2478426,"longitude":134.166205,"coordinate_source":"google"},{"id":"b1879d2d-0e1a-4258-8179-ec7042403880","facility_type":"public-bath","bath_policy":"gender-bath","country_code":"KR","city":null,"latitude":37.5816959,"longitude":127.0439002,"coordinate_source":"naver"},{"id":"c9666cf7-e742-4bb9-a2dd-f68e54f4d466","facility_type":"private-sauna","bath_policy":"gender-bath","country_code":"KR","city":null,"latitude":35.1536442,"longitude":126.8511675,"coordinate_source":"naver"},{"id":"a887626e-0f2c-4385-aed1-c75c052649c3","facility_type":"public-bath","bath_policy":"male-only","country_code":"JP","city":"Osaka","latitude":34.6933308,"longitude":135.4743725,"coordinate_source":"google"},{"id":"c709861a-51b9-4123-bfd7-88d4ba5aa96a","facility_type":"small-bath","bath_policy":"gender-bath","country_code":"KR","city":"Gwangju-si","latitude":37.4146044,"longitude":127.2495559,"coordinate_source":"naver"},{"id":"8181ca98-c0d2-448a-874c-d05a9e3d268a","facility_type":"public-bath","bath_policy":"gender-bath","country_code":"KR","city":"Cheju","latitude":33.5566969,"longitude":126.7559858,"coordinate_source":"naver"},{"id":"78d91d1c-d7cd-4818-8a94-521a24b48a4f","facility_type":"small-bath","bath_policy":"gender-bath","country_code":"KR","city":null,"latitude":37.469651,"longitude":126.92125,"coordinate_source":"naver"},{"id":"8ec5199d-a7e9-46ae-951f-e71536006af8","facility_type":"public-bath","bath_policy":"mixed","country_code":"US","city":null,"latitude":40.7205873,"longitude":-73.9575054,"coordinate_source":"google"},{"id":"9fa63f79-f180-456e-8c9e-0b7ca752d2b4","facility_type":"hotel-spa","bath_policy":"mixed","country_code":"ES","city":"Barcelona","latitude":41.3870319,"longitude":2.1834724,"coordinate_source":"google"},{"id":"9ac220df-2a42-4b1d-8969-4e0b57830f82","facility_type":"hotel-spa","bath_policy":"mixed","country_code":"EE","city":"Tallinn","latitude":59.3998304,"longitude":24.6653202,"coordinate_source":"google"},{"id":"55a14cf6-735c-4866-b969-b55bedd93643","facility_type":"public-bath","bath_policy":"gender-bath","country_code":"KR","city":null,"latitude":35.2269653,"longitude":129.0103476,"coordinate_source":"naver"},{"id":"c9ed70b6-1825-42c8-bafe-05f4105d7eb2","facility_type":"small-bath","bath_policy":"gender-bath","country_code":"KR","city":"Andong","latitude":36.7505526,"longitude":128.8201553,"coordinate_source":"naver"},{"id":"4da4073a-c3b2-4ef8-853a-aec5c3f329c2","facility_type":"small-bath","bath_policy":"gender-bath","country_code":"KR","city":null,"latitude":37.5375655,"longitude":127.0565146,"coordinate_source":"naver"},{"id":"a219e9b4-92e0-442a-a235-cc6382e8e0c7","facility_type":"public-bath","bath_policy":"gender-bath","country_code":"KR","city":"Euijeongbu","latitude":37.7365582,"longitude":127.0363564,"coordinate_source":"naver"},{"id":"f4bd04a9-9066-4650-9cfa-2eb2c8107fd1","facility_type":"public-bath","bath_policy":"gender-bath","country_code":"KR","city":null,"latitude":37.5256156,"longitude":127.0393899,"coordinate_source":"naver"},{"id":"0be3cf82-87af-4571-84c0-2d263ffdffad","facility_type":"public-bath","bath_policy":"gender-bath","country_code":"JP","city":"Sumida City","latitude":35.7022277,"longitude":139.8153012,"coordinate_source":"google"},{"id":"a666495a-e40a-4fcc-b0d2-7360bfb18693","facility_type":"public-bath","bath_policy":"mixed","country_code":"DE","city":"Baden-Baden","latitude":48.7629938,"longitude":8.2420786,"coordinate_source":"google"},{"id":"13d9f01a-f05b-43ab-bc0a-88eec3dcfe24","facility_type":"public-bath","bath_policy":"gender-bath","country_code":"JP","city":"Adachi City","latitude":35.7717454,"longitude":139.7889942,"coordinate_source":"google"},{"id":"07da6b4f-e085-4660-b03a-4ff0d3300601","facility_type":"hotel-spa","bath_policy":"gender-bath","country_code":"JP","city":"Minato City","latitude":35.6621677,"longitude":139.7403096,"coordinate_source":"google"},{"id":"75e65305-386d-4efd-bcec-4725206265fd","facility_type":"public-bath","bath_policy":"mixed","country_code":"EE","city":"Tallinn","latitude":59.4438698,"longitude":24.7376441,"coordinate_source":"google"},{"id":"eb0daeb3-4ded-4c6f-a3fe-99f2f0811e1e","facility_type":"public-bath","bath_policy":"gender-bath","country_code":"KR","city":null,"latitude":37.489201,"longitude":127.0529027,"coordinate_source":"naver"},{"id":"af4ed227-7a57-47b7-93c0-cfe12cacbcf3","facility_type":"public-bath","bath_policy":"gender-bath","country_code":"JP","city":"Shinjuku City","latitude":35.6746794,"longitude":139.7131361,"coordinate_source":"google"},{"id":"39104a83-cb27-4722-98b4-ad87305a49a2","facility_type":"public-bath","bath_policy":"gender-bath","country_code":"KR","city":null,"latitude":37.4834845,"longitude":126.955075,"coordinate_source":"naver"},{"id":"1c7c7122-14c7-410a-82d2-62fddf842143","facility_type":"public-bath","bath_policy":"gender-bath","country_code":"KR","city":"Cheongdo","latitude":35.6903014,"longitude":128.5714562,"coordinate_source":"naver"},{"id":"6d05bd50-5c1c-4e79-a83a-31b5461a161d","facility_type":"public-bath","bath_policy":"gender-bath","country_code":"KR","city":null,"latitude":35.1378781,"longitude":129.1068357,"coordinate_source":"naver"},{"id":"b4e22611-a8a9-426b-8a92-7b92cb3c425a","facility_type":"hotel-spa","bath_policy":"gender-bath","country_code":"KR","city":"Cheongju","latitude":36.8446827,"longitude":127.9805827,"coordinate_source":"naver"},{"id":"437f289a-27ef-467b-b612-afd13f601499","facility_type":"public-bath","bath_policy":"gender-bath","country_code":"KR","city":"Uljin","latitude":37.0788137,"longitude":129.2835294,"coordinate_source":"naver"},{"id":"a4ffb01e-e50c-453f-b252-7a0933133c48","facility_type":"public-bath","bath_policy":"gender-bath","country_code":"KR","city":"Suwon","latitude":37.3021371,"longitude":127.0093259,"coordinate_source":"naver"},{"id":"25ca7ae4-83d1-4fcc-b008-29f35aabc91a","facility_type":"gym-sauna","bath_policy":"gender-bath","country_code":"KR","city":null,"latitude":37.5684246,"longitude":126.9782701,"coordinate_source":"naver"},{"id":"eda15ebd-3c29-40b4-bf6e-ec480fe9bbd9","facility_type":"public-bath","bath_policy":"gender-bath","country_code":"KR","city":"Goyang-si","latitude":37.659187,"longitude":126.9329519,"coordinate_source":"naver"},{"id":"9e2b9559-c535-4ba3-a354-69bdedbc39ae","facility_type":"public-bath","bath_policy":"gender-bath","country_code":"KR","city":"Cheongsong","latitude":36.4359291,"longitude":129.0629165,"coordinate_source":"naver"},{"id":"e803c330-f6a1-42e9-bf7e-71dad2925b48","facility_type":"public-bath","bath_policy":"gender-bath","country_code":"KR","city":null,"latitude":37.5042023,"longitude":127.0520244,"coordinate_source":"naver"},{"id":"1139001e-593d-4a18-941e-ed556d2f5be1","facility_type":"public-bath","bath_policy":"gender-bath","country_code":"KR","city":null,"latitude":37.5111167,"longitude":127.1284,"coordinate_source":"naver"},{"id":"38ba9867-4e60-4f26-97ad-46245d867df5","facility_type":"public-bath","bath_policy":"gender-bath","country_code":"KR","city":"Namyangju-si","latitude":37.6131034,"longitude":127.1527702,"coordinate_source":"naver"},{"id":"505b93a1-2e23-4946-8599-7e42103e3df9","facility_type":"public-bath","bath_policy":"gender-bath","country_code":"KR","city":null,"latitude":35.5561907,"longitude":129.0723002,"coordinate_source":"naver"},{"id":"d42dba7f-5507-4f10-aed5-7b81c130bcc6","facility_type":"public-bath","bath_policy":"gender-bath","country_code":"KR","city":null,"latitude":36.3550473,"longitude":127.3482568,"coordinate_source":"naver"},{"id":"f5525324-1df0-4ce3-9793-b5425e86f312","facility_type":"public-bath","bath_policy":"gender-bath","country_code":"KR","city":null,"latitude":35.1551789,"longitude":129.1337908,"coordinate_source":"naver"},{"id":"5bed4463-bb17-42a2-88eb-f7e20c1eb955","facility_type":"hotel-spa","bath_policy":"gender-bath","country_code":"KR","city":null,"latitude":37.5396013,"longitude":126.997452,"coordinate_source":"naver"},{"id":"d55bca86-7fbc-43b3-a482-5b9528683ab2","facility_type":"small-bath","bath_policy":"gender-bath","country_code":"KR","city":null,"latitude":35.2183801,"longitude":129.0796963,"coordinate_source":"naver"},{"id":"8df154b1-0301-4502-8368-0fbe6bfbff19","facility_type":"public-bath","bath_policy":"gender-bath","country_code":"KR","city":null,"latitude":37.5037548,"longitude":127.0454597,"coordinate_source":"naver"},{"id":"f2f77663-ccab-4c4d-861a-a2a5a0f2d816","facility_type":"public-bath","bath_policy":"gender-bath","country_code":"JP","city":"Kawasaki","latitude":35.528073,"longitude":139.6970804,"coordinate_source":"google"},{"id":"d7a00239-388d-4f20-b64f-ad2081ef8937","facility_type":"hotel-spa","bath_policy":"gender-bath","country_code":"KR","city":null,"latitude":37.5723948,"longitude":126.9871734,"coordinate_source":"naver"},{"id":"2da65848-b31b-4dc9-badb-e621f6762190","facility_type":"public-bath","bath_policy":"gender-bath","country_code":"KR","city":"Seongnam-si","latitude":37.3768783,"longitude":127.1114679,"coordinate_source":"naver"},{"id":"29be5f74-684c-40a3-b0c8-95a2befe79cb","facility_type":"hotel-spa","bath_policy":"gender-bath","country_code":"KR","city":null,"latitude":37.4405294,"longitude":126.4575405,"coordinate_source":"naver"},{"id":"0236da96-bfdd-47ae-85f0-3cfdc11bac27","facility_type":"special","bath_policy":"gender-bath","country_code":"KR","city":null,"latitude":37.5598302,"longitude":126.9852942,"coordinate_source":"naver"},{"id":"37fe3b33-4e51-4c28-ac65-3e3bd424ee0a","facility_type":"private-sauna","bath_policy":"gender-bath","country_code":"KR","city":"Gwangmyeong-si","latitude":37.4222701,"longitude":126.8839949,"coordinate_source":"naver"},{"id":"1a0d1987-e8d3-4982-bb66-0a60c9c18aa8","facility_type":"public-bath","bath_policy":"gender-bath","country_code":"KR","city":null,"latitude":35.2415092,"longitude":129.0907349,"coordinate_source":"naver"},{"id":"aa929b86-d792-4c4f-8ef2-a0b6de8882ca","facility_type":"small-bath","bath_policy":"female-only","country_code":"KR","city":null,"latitude":35.2731237,"longitude":129.0873249,"coordinate_source":"naver"},{"id":"9141a630-dffe-4bfe-b76b-3080ba1f97d4","facility_type":"small-bath","bath_policy":"gender-bath","country_code":"KR","city":null,"latitude":35.2204606,"longitude":129.081595,"coordinate_source":"naver"},{"id":"2fddb961-3f8f-40af-a5f5-38c34205aaec","facility_type":"public-bath","bath_policy":"gender-bath","country_code":"KR","city":"Cheongju","latitude":37.0936742,"longitude":127.8022052,"coordinate_source":"naver"},{"id":"25d28906-a9a9-472d-ab2e-e4cb0e15f818","facility_type":"public-bath","bath_policy":"gender-bath","country_code":"KR","city":null,"latitude":37.5422664,"longitude":126.9446458,"coordinate_source":"naver"},{"id":"313d1211-4b5a-42b8-adfb-83fd746ffb2e","facility_type":"public-bath","bath_policy":"gender-bath","country_code":"KR","city":null,"latitude":35.1748637,"longitude":129.0682308,"coordinate_source":"naver"},{"id":"54736d75-3fff-4408-b0f9-a2e0844e1cc7","facility_type":"public-bath","bath_policy":"gender-bath","country_code":"KR","city":null,"latitude":35.2211206,"longitude":129.0809024,"coordinate_source":"naver"},{"id":"7fde88ea-e46b-4d48-be8d-9026b19aa8a3","facility_type":"public-bath","bath_policy":"gender-bath","country_code":"KR","city":null,"latitude":37.3890043,"longitude":126.6353273,"coordinate_source":"naver"},{"id":"558503e4-0e9a-4703-823b-601202cf2cad","facility_type":"public-bath","bath_policy":"gender-bath","country_code":"KR","city":null,"latitude":37.5646833,"longitude":127.0347875,"coordinate_source":"naver"},{"id":"bd79fa67-8fb4-4a64-9d1b-61844ace660f","facility_type":"hotel-spa","bath_policy":"gender-bath","country_code":"KR","city":"Yeosu","latitude":34.7419663,"longitude":127.7547225,"coordinate_source":"naver"},{"id":"a41aac90-7f91-48e9-9749-b0b65f5d7bc3","facility_type":"small-bath","bath_policy":"gender-bath","country_code":"KR","city":null,"latitude":37.5569134,"longitude":127.0891734,"coordinate_source":"naver"},{"id":"84535bd6-81a1-42aa-b778-c45302e63ad3","facility_type":"hotel-spa","bath_policy":"gender-bath","country_code":"KR","city":null,"latitude":37.5056299,"longitude":127.0294946,"coordinate_source":"naver"},{"id":"87791b43-5818-4d17-82af-ea423597c34c","facility_type":"public-bath","bath_policy":"gender-bath","country_code":"JP","city":"Date","latitude":42.6242446,"longitude":141.0256347,"coordinate_source":"google"},{"id":"210be980-9882-4393-8e1f-a3febcba1fac","facility_type":"special","bath_policy":"gender-bath","country_code":"KR","city":"Jeongeup","latitude":35.7102828,"longitude":126.8506556,"coordinate_source":"naver"},{"id":"2cffdfdf-17e5-4b4c-a73d-0793b3c3e97b","facility_type":"public-bath","bath_policy":"gender-bath","country_code":"KR","city":null,"latitude":37.5028918,"longitude":127.098896,"coordinate_source":"naver"},{"id":"b72b4e90-85bf-4028-8ed0-873faef2f42b","facility_type":"public-bath","bath_policy":"gender-bath","country_code":"KR","city":null,"latitude":37.4858032,"longitude":126.9384848,"coordinate_source":"naver"},{"id":"e10a54f2-98b3-421f-ab71-225e83565f8d","facility_type":"public-bath","bath_policy":"gender-bath","country_code":"KR","city":null,"latitude":37.5959397,"longitude":126.9132393,"coordinate_source":"naver"},{"id":"7273b6ab-3a88-4034-9ce1-02273afe7497","facility_type":"private-sauna","bath_policy":"gender-bath","country_code":"KR","city":null,"latitude":37.5142424,"longitude":126.9393186,"coordinate_source":"naver"},{"id":"7a76b1ea-9ef1-4c15-a34d-778ae95e7fff","facility_type":"public-bath","bath_policy":"gender-bath","country_code":"KR","city":"Yangyang","latitude":37.9421733,"longitude":128.7695904,"coordinate_source":"naver"},{"id":"76249854-056d-4205-8a35-ef74454b284e","facility_type":"public-bath","bath_policy":"female-only","country_code":"KR","city":null,"latitude":37.516578,"longitude":127.04281,"coordinate_source":"naver"},{"id":"43469200-84c8-4df6-a643-1709282cfc43","facility_type":"public-bath","bath_policy":"gender-bath","country_code":"KR","city":null,"latitude":37.4864636,"longitude":126.5624824,"coordinate_source":"naver"},{"id":"9a65005f-0cba-43be-a277-d3daaf177e5b","facility_type":"public-bath","bath_policy":"gender-bath","country_code":"KR","city":null,"latitude":37.5266499,"longitude":126.892785,"coordinate_source":"naver"},{"id":"f06195fa-15bc-4a66-b0e0-90068a70075b","facility_type":"public-bath","bath_policy":"gender-bath","country_code":"KR","city":null,"latitude":37.5547094,"longitude":126.8513356,"coordinate_source":"naver"},{"id":"58de0934-9dfe-4086-b622-b9d82e8efa52","facility_type":"public-bath","bath_policy":"gender-bath","country_code":"JP","city":"Kobe","latitude":34.7979027,"longitude":135.2512053,"coordinate_source":"google"},{"id":"f8308e42-2a63-4508-9190-84c3f8aea7f2","facility_type":"public-bath","bath_policy":"gender-bath","country_code":"KR","city":"Yangpyeong","latitude":37.4901198,"longitude":127.4963815,"coordinate_source":"naver"},{"id":"da7666e6-ea1d-4b4d-8bca-5290ac885ec0","facility_type":"public-bath","bath_policy":"gender-bath","country_code":"KR","city":null,"latitude":37.6338023,"longitude":126.9177389,"coordinate_source":"naver"},{"id":"9fb780af-c1b1-4916-9944-139214811522","facility_type":"hotel-spa","bath_policy":"gender-bath","country_code":"KR","city":"Wanju-gun","latitude":35.7442915,"longitude":127.2075383,"coordinate_source":"naver"},{"id":"72dba5ca-1c84-4acb-ba51-2ed9a32bf324","facility_type":"public-bath","bath_policy":"gender-bath","country_code":"KR","city":null,"latitude":35.1683869,"longitude":129.129033,"coordinate_source":"naver"},{"id":"7e519017-1356-4b8b-8977-a425e93e68eb","facility_type":"small-bath","bath_policy":"gender-bath","country_code":"KR","city":null,"latitude":37.487414,"longitude":127.0081372,"coordinate_source":"naver"},{"id":"282fb281-3693-40ba-9068-f111654b63d7","facility_type":"small-bath","bath_policy":"gender-bath","country_code":"KR","city":null,"latitude":35.0789691,"longitude":128.9716813,"coordinate_source":"naver"},{"id":"1891a8c5-ddda-49d9-b8aa-6ac08acacd85","facility_type":"public-bath","bath_policy":"gender-bath","country_code":"KR","city":null,"latitude":35.2183275,"longitude":129.0804952,"coordinate_source":"naver"},{"id":"299bc843-7078-448e-bf71-0a313e37d3ac","facility_type":"hotel-spa","bath_policy":"gender-bath","country_code":"KR","city":"Gyeongju","latitude":35.8386135,"longitude":129.2920168,"coordinate_source":"naver"},{"id":"60c460aa-dc90-47f8-9943-c69e1f099ea5","facility_type":"public-bath","bath_policy":"gender-bath","country_code":"KR","city":"Seogwipo","latitude":33.2490187,"longitude":126.2988035,"coordinate_source":"naver"},{"id":"5d9f65bb-1acc-47d8-929e-0ce180d3a7bc","facility_type":"public-bath","bath_policy":"gender-bath","country_code":"KR","city":null,"latitude":37.4690648,"longitude":126.433177,"coordinate_source":"naver"},{"id":"df5d08f4-dff5-410e-801a-a2f2ba60d01d","facility_type":"public-bath","bath_policy":"gender-bath","country_code":"KR","city":null,"latitude":37.544919,"longitude":127.057521,"coordinate_source":"naver"},{"id":"d0e7b437-7895-4d50-b635-9411f3ca3905","facility_type":"public-bath","bath_policy":"gender-bath","country_code":"KR","city":"Anseong-si","latitude":36.9941745,"longitude":127.1475989,"coordinate_source":"naver"},{"id":"03a3e237-4e4d-461a-9511-272083addc82","facility_type":"public-bath","bath_policy":"gender-bath","country_code":"KR","city":"Yangsan","latitude":35.4203353,"longitude":129.0445632,"coordinate_source":"naver"},{"id":"bb9f34e7-260f-4b89-9dbe-7f7c7f6fb751","facility_type":"public-bath","bath_policy":"gender-bath","country_code":"KR","city":"Euijeongbu","latitude":37.714444,"longitude":127.048016,"coordinate_source":"naver"},{"id":"76436113-4ab1-40d0-a069-87976b81cfea","facility_type":"public-bath","bath_policy":"gender-bath","country_code":"KR","city":null,"latitude":35.1563961,"longitude":129.1443834,"coordinate_source":"naver"},{"id":"7319c949-c0af-4302-8f27-99ae38f78d49","facility_type":"public-bath","bath_policy":"gender-bath","country_code":"KR","city":null,"latitude":37.566935,"longitude":127.0071691,"coordinate_source":"naver"},{"id":"78998a61-18d9-4228-aa25-65849fa91845","facility_type":"public-bath","bath_policy":"gender-bath","country_code":"KR","city":"Pocheon-si","latitude":37.9741059,"longitude":127.1042486,"coordinate_source":"naver"},{"id":"ca45c735-c8ee-4329-a80b-6eaccfd6cfa1","facility_type":"public-bath","bath_policy":"gender-bath","country_code":"KR","city":"Goyang-si","latitude":37.6480044,"longitude":126.8966537,"coordinate_source":"naver"},{"id":"39871b48-3683-4831-a9a2-27927865dacd","facility_type":"hotel-spa","bath_policy":"gender-bath","country_code":"KR","city":null,"latitude":37.5186248,"longitude":127.0181346,"coordinate_source":"naver"},{"id":"0c7bd022-d8eb-4717-86c1-767939a7b8e4","facility_type":"private-sauna","bath_policy":"gender-bath","country_code":"KR","city":"Cheju","latitude":33.5361348,"longitude":126.6335095,"coordinate_source":"naver"},{"id":"d029b609-ca00-4672-a3e8-5a54eea367ae","facility_type":"special","bath_policy":"gender-bath","country_code":"KR","city":null,"latitude":35.5487187,"longitude":129.1840651,"coordinate_source":"naver"},{"id":"77333149-25f9-4d9f-a644-6272f57079ea","facility_type":"public-bath","bath_policy":"gender-bath","country_code":"KR","city":null,"latitude":35.1631355,"longitude":129.1649033,"coordinate_source":"naver"},{"id":"6915d330-bb93-4d64-bf55-f302050f0149","facility_type":"public-bath","bath_policy":"gender-bath","country_code":"KR","city":"Yeosu","latitude":34.7324504,"longitude":127.6439655,"coordinate_source":"naver"},{"id":"d96c2dc1-367f-46ca-92b4-ce41bc51600f","facility_type":"hotel-spa","bath_policy":"gender-bath","country_code":"KR","city":"Seogwipo","latitude":33.2429932,"longitude":126.5371602,"coordinate_source":"naver"},{"id":"f254e4d9-cec3-49ad-936e-8d703ffd9b99","facility_type":"small-bath","bath_policy":"gender-bath","country_code":"KR","city":"Cheonan","latitude":36.8009169,"longitude":127.1583249,"coordinate_source":"naver"},{"id":"0cd62b6d-a424-4866-bc2a-b5d62e36df9b","facility_type":"public-bath","bath_policy":"gender-bath","country_code":"KR","city":null,"latitude":37.5576359,"longitude":126.9430699,"coordinate_source":"naver"},{"id":"dee6dbaa-f2f3-4d82-8687-11cf5b9a9d4b","facility_type":"public-bath","bath_policy":"gender-bath","country_code":"KR","city":null,"latitude":37.5917142,"longitude":127.0666134,"coordinate_source":"naver"},{"id":"976f42ab-3a54-4b21-89e6-aeae48ceeaac","facility_type":"small-bath","bath_policy":"gender-bath","country_code":"KR","city":"Seongnam-si","latitude":37.3627869,"longitude":127.1145117,"coordinate_source":"naver"},{"id":"1d12baf4-c15f-4220-a8e8-eefdf90b6105","facility_type":"hotel-spa","bath_policy":"gender-bath","country_code":"KR","city":"Yangyang","latitude":38.0521936,"longitude":128.6612931,"coordinate_source":"naver"},{"id":"7c59f5ab-fc9f-4e21-a7a0-6d4f96f8bb51","facility_type":"public-bath","bath_policy":"gender-bath","country_code":"KR","city":null,"latitude":37.544342,"longitude":126.9218248,"coordinate_source":"naver"},{"id":"bf69f204-a81b-45da-a17d-fd13f1986819","facility_type":"special","bath_policy":"gender-bath","country_code":"KR","city":null,"latitude":37.5702256,"longitude":126.945587,"coordinate_source":"naver"},{"id":"5027bb58-cf2c-46e3-8f70-e4145cd43565","facility_type":"public-bath","bath_policy":"gender-bath","country_code":"KR","city":null,"latitude":37.5863578,"longitude":126.9200018,"coordinate_source":"naver"},{"id":"1bf78094-de44-4fe1-b31e-5b107f344c93","facility_type":"public-bath","bath_policy":"gender-bath","country_code":"KR","city":"Cheonan","latitude":36.844277,"longitude":127.1354653,"coordinate_source":"naver"},{"id":"d6c19557-bbdc-4810-969b-23ae47bd5d95","facility_type":"hotel-spa","bath_policy":"gender-bath","country_code":"KR","city":null,"latitude":37.5558806,"longitude":127.0051533,"coordinate_source":"naver"},{"id":"0a53b809-64db-4baf-8746-8c5809c80ddc","facility_type":"public-bath","bath_policy":"gender-bath","country_code":"KR","city":"Kochang","latitude":35.43204,"longitude":126.7410118,"coordinate_source":"naver"},{"id":"905b3fdb-9165-4810-afeb-58a5af81d1f9","facility_type":"hotel-spa","bath_policy":"gender-bath","country_code":"KR","city":null,"latitude":35.1978188,"longitude":129.228348,"coordinate_source":"naver"},{"id":"56f2246b-092e-4a4b-a8c4-15a96dcf3b34","facility_type":"public-bath","bath_policy":"gender-bath","country_code":"KR","city":null,"latitude":37.6082382,"longitude":126.9564599,"coordinate_source":"naver"},{"id":"8f816080-568f-4353-a00e-5a40a2c8e62a","facility_type":"small-bath","bath_policy":"gender-bath","country_code":"KR","city":"Cheju","latitude":33.4854325,"longitude":126.6013774,"coordinate_source":"naver"},{"id":"d97f24a0-e760-4584-bb97-7c7fbe196c74","facility_type":"public-bath","bath_policy":"gender-bath","country_code":"KR","city":null,"latitude":36.3566998,"longitude":127.3450365,"coordinate_source":"naver"},{"id":"c8178237-64ac-4f28-824f-f8f2e7926990","facility_type":"public-bath","bath_policy":"gender-bath","country_code":"KR","city":"Hwaseong-si","latitude":37.1145339,"longitude":126.8765974,"coordinate_source":"naver"},{"id":"3c2ceb88-2cc1-4a24-b76b-d374175ce53c","facility_type":"public-bath","bath_policy":"gender-bath","country_code":"KR","city":"Icheon","latitude":37.1950683,"longitude":127.4460406,"coordinate_source":"naver"},{"id":"658e982d-41f7-4d76-98c3-ef9dea4afc6c","facility_type":"public-bath","bath_policy":"gender-bath","country_code":"KR","city":"Cheongju","latitude":36.7203757,"longitude":127.6003601,"coordinate_source":"naver"},{"id":"6e8342fe-e7b5-4c92-98d8-47bc0dab2470","facility_type":"public-bath","bath_policy":"gender-bath","country_code":"KR","city":"Sokcho-si","latitude":38.1902163,"longitude":128.5407098,"coordinate_source":"naver"},{"id":"0b839c2c-16c4-4816-ac78-41b079dde870","facility_type":"hotel-spa","bath_policy":"gender-bath","country_code":"KR","city":"Yeosu","latitude":34.7215131,"longitude":127.6988458,"coordinate_source":"naver"},{"id":"f4b8a112-3043-4923-a146-17f3094e4557","facility_type":"special","bath_policy":"gender-bath","country_code":"KR","city":null,"latitude":37.5454636,"longitude":127.0655222,"coordinate_source":"naver"},{"id":"317665c5-034b-4b50-98a7-f4e953b7cde3","facility_type":"public-bath","bath_policy":"gender-bath","country_code":"KR","city":"Cheongsong","latitude":36.3766389,"longitude":129.1104486,"coordinate_source":"naver"},{"id":"c1dc05fb-3293-407c-82cc-85b45a5e3028","facility_type":"hotel-spa","bath_policy":"gender-bath","country_code":"KR","city":null,"latitude":35.1691761,"longitude":129.1302407,"coordinate_source":"naver"},{"id":"572dc7ce-a491-40e4-9102-40eb68ee65a6","facility_type":"hotel-spa","bath_policy":"gender-bath","country_code":"KR","city":"Gyeongju","latitude":35.8465757,"longitude":129.2818548,"coordinate_source":"naver"},{"id":"5da18c55-f459-4561-8aa8-28cac9817198","facility_type":"public-bath","bath_policy":"gender-bath","country_code":"KR","city":"Hanam-si","latitude":37.5457968,"longitude":127.2234173,"coordinate_source":"naver"},{"id":"5e62bc5c-a107-42c6-abd1-b768b034cf0b","facility_type":"public-bath","bath_policy":"gender-bath","country_code":"KR","city":"Jangheung","latitude":34.638179,"longitude":127.042804,"coordinate_source":"naver"},{"id":"abc2ccfc-b772-48e2-864d-7a9348d4992d","facility_type":"public-bath","bath_policy":"gender-bath","country_code":"KR","city":"Andong","latitude":36.5892946,"longitude":128.6482231,"coordinate_source":"naver"},{"id":"74337566-118a-4b90-985f-07fcf2e93f6e","facility_type":"public-bath","bath_policy":"gender-bath","country_code":"KR","city":null,"latitude":37.569477,"longitude":126.917444,"coordinate_source":"naver"},{"id":"42c1cf9a-28c1-4d00-a807-1526ecd63c3c","facility_type":"hotel-spa","bath_policy":"gender-bath","country_code":"KR","city":null,"latitude":37.5029272,"longitude":127.0411011,"coordinate_source":"naver"},{"id":"a8f1f26a-f5a0-4605-905e-cda44a587c27","facility_type":"public-bath","bath_policy":"gender-bath","country_code":"KR","city":"Paju-si","latitude":37.8512074,"longitude":126.8566232,"coordinate_source":"naver"},{"id":"4d0cad9e-9a24-4890-a3f0-40a05e243be6","facility_type":"small-bath","bath_policy":"gender-bath","country_code":"KR","city":null,"latitude":37.6366135,"longitude":127.018373,"coordinate_source":"naver"},{"id":"f541d6a8-7964-4617-8fac-31db4cfa965f","facility_type":"small-bath","bath_policy":"gender-bath","country_code":"KR","city":"Anseong-si","latitude":37.0942372,"longitude":127.475094,"coordinate_source":"naver"},{"id":"35af5049-2a00-4de6-9ec1-f591e05880aa","facility_type":"small-bath","bath_policy":"gender-bath","country_code":"KR","city":null,"latitude":37.5697629,"longitude":127.0193775,"coordinate_source":"naver"},{"id":"6302208e-a00a-4d59-bf0e-89775b54796a","facility_type":"hotel-spa","bath_policy":"gender-bath","country_code":"KR","city":"Gyeongju","latitude":35.7879333,"longitude":129.3219124,"coordinate_source":"naver"},{"id":"0a2ca23c-39ac-47e6-b123-63ce63d16745","facility_type":"public-bath","bath_policy":"gender-bath","country_code":"KR","city":null,"latitude":37.5539127,"longitude":127.1550263,"coordinate_source":"naver"},{"id":"19303c83-cd42-484c-bb70-1b62a64ed10c","facility_type":"public-bath","bath_policy":"gender-bath","country_code":"KR","city":null,"latitude":37.6004215,"longitude":126.9085773,"coordinate_source":"naver"},{"id":"3e337352-714e-48e5-90bb-5159611e1f95","facility_type":"hotel-spa","bath_policy":"gender-bath","country_code":"KR","city":"Gangneung","latitude":37.6543761,"longitude":129.0526977,"coordinate_source":"naver"},{"id":"bfb6580b-8ef5-4bc3-a0c4-2682f495e962","facility_type":"public-bath","bath_policy":"gender-bath","country_code":"KR","city":null,"latitude":37.5717317,"longitude":127.0152465,"coordinate_source":"naver"},{"id":"704495e7-3ef5-4ad4-8a03-35e8f3b4e47d","facility_type":"public-bath","bath_policy":"gender-bath","country_code":"KR","city":null,"latitude":36.3558005,"longitude":127.3416082,"coordinate_source":"naver"},{"id":"1dcd598e-9b2a-4ef5-9cea-6e8029972b2b","facility_type":"public-bath","bath_policy":"gender-bath","country_code":"KR","city":"Jincheon","latitude":36.8579892,"longitude":127.4377605,"coordinate_source":"naver"},{"id":"6ce525c1-e771-4db8-9e2a-d3240d52c633","facility_type":"public-bath","bath_policy":"gender-bath","country_code":"KR","city":"Asan-si","latitude":36.7811282,"longitude":127.0157859,"coordinate_source":"naver"},{"id":"43c80382-d442-472c-a782-caea9b0927e3","facility_type":"public-bath","bath_policy":"gender-bath","country_code":"KR","city":"Hwaseong-si","latitude":37.1521931,"longitude":126.8821441,"coordinate_source":"naver"},{"id":"092e97d7-5c77-4c10-9797-9f8a8b7cdc25","facility_type":"public-bath","bath_policy":"gender-bath","country_code":"KR","city":null,"latitude":37.5459649,"longitude":126.95208,"coordinate_source":"naver"},{"id":"8c6cd963-fc0f-4f9c-ba45-0dcb7848836c","facility_type":"hotel-spa","bath_policy":"gender-bath","country_code":"KR","city":null,"latitude":37.467004,"longitude":127.0218022,"coordinate_source":"naver"},{"id":"8ffe2725-e35c-4e15-9b5c-059d6d03968d","facility_type":"public-bath","bath_policy":"gender-bath","country_code":"KR","city":null,"latitude":37.5368106,"longitude":127.0961825,"coordinate_source":"naver"},{"id":"aba7646f-5599-47a4-bd26-4800c8e1b192","facility_type":"special","bath_policy":"gender-bath","country_code":"KR","city":null,"latitude":37.6207151,"longitude":127.0837922,"coordinate_source":"naver"},{"id":"4467c03d-087e-45dc-91c1-b52b77e61fa3","facility_type":"public-bath","bath_policy":"gender-bath","country_code":"KR","city":null,"latitude":37.5629964,"longitude":127.0055405,"coordinate_source":"naver"},{"id":"7843748f-f018-4af8-83b7-9293a0435e0a","facility_type":"hotel-spa","bath_policy":"gender-bath","country_code":"KR","city":"Jeongseon","latitude":37.4749147,"longitude":128.6110656,"coordinate_source":"naver"},{"id":"6a46975e-03e7-4003-b4c6-662fa3db5b21","facility_type":"public-bath","bath_policy":"gender-bath","country_code":"KR","city":"Inje","latitude":38.0764094,"longitude":128.3696643,"coordinate_source":"naver"},{"id":"0563f6c6-edc6-4a1d-9718-4101de021c18","facility_type":"small-bath","bath_policy":"gender-bath","country_code":"KR","city":null,"latitude":37.546086,"longitude":126.8730446,"coordinate_source":"naver"},{"id":"ccb05800-0586-468f-ae5c-4464de50df15","facility_type":"public-bath","bath_policy":"gender-bath","country_code":"KR","city":"Seongnam-si","latitude":37.4657937,"longitude":127.1405888,"coordinate_source":"naver"},{"id":"51aa7ebd-a46f-40a4-8ba5-12c4a8d02c59","facility_type":"public-bath","bath_policy":"gender-bath","country_code":"KR","city":null,"latitude":37.5309805,"longitude":127.0842251,"coordinate_source":"naver"},{"id":"63e858c2-8042-45d1-ac96-9055add92a30","facility_type":"small-bath","bath_policy":"gender-bath","country_code":"KR","city":null,"latitude":37.5915241,"longitude":126.9448101,"coordinate_source":"naver"},{"id":"2893c8cb-2cc3-4d3c-ae22-28471448fa68","facility_type":"public-bath","bath_policy":"gender-bath","country_code":"KR","city":"Yangju-si","latitude":37.7446867,"longitude":126.9596321,"coordinate_source":"naver"},{"id":"73b89671-505c-4476-be66-a9c87a006806","facility_type":"public-bath","bath_policy":"gender-bath","country_code":"KR","city":"Hanam-si","latitude":37.5354632,"longitude":127.1750984,"coordinate_source":"naver"},{"id":"f782dc13-c8c3-4873-81a8-e81f664b5e5f","facility_type":"public-bath","bath_policy":"gender-bath","country_code":"KR","city":"Gyeongju","latitude":35.8406941,"longitude":129.2042041,"coordinate_source":"naver"},{"id":"3e5c5182-d04f-4781-9885-a662304df0b6","facility_type":"hotel-spa","bath_policy":"gender-bath","country_code":"KR","city":null,"latitude":35.160056,"longitude":129.168482,"coordinate_source":"naver"},{"id":"7c0d4d19-bc69-44dc-b2d5-30ce1adcbede","facility_type":"small-bath","bath_policy":"gender-bath","country_code":"KR","city":null,"latitude":37.5630198,"longitude":127.0282292,"coordinate_source":"naver"},{"id":"6d985d61-0a3f-4504-af04-aa096692cd57","facility_type":"public-bath","bath_policy":"gender-bath","country_code":"KR","city":"Paju-si","latitude":37.7744576,"longitude":126.7164076,"coordinate_source":"naver"},{"id":"87b98972-e7e3-4f91-8bd8-665da1aaa9e8","facility_type":"public-bath","bath_policy":"gender-bath","country_code":"KR","city":null,"latitude":37.6708465,"longitude":127.0058562,"coordinate_source":"naver"},{"id":"bfb91c7d-6545-4aac-860d-bab8f390f86c","facility_type":"public-bath","bath_policy":"gender-bath","country_code":"KR","city":"Cheju","latitude":33.4938033,"longitude":126.432256,"coordinate_source":"naver"},{"id":"4482da09-b35e-43f1-a2ac-c9bfa1d9a85d","facility_type":"public-bath","bath_policy":"gender-bath","country_code":"KR","city":null,"latitude":35.1584673,"longitude":129.1752684,"coordinate_source":"naver"},{"id":"dfd3dbba-6883-4999-ae09-c1e3b4453316","facility_type":"public-bath","bath_policy":"gender-bath","country_code":"KR","city":"Yangju-si","latitude":37.7949282,"longitude":127.0781462,"coordinate_source":"naver"},{"id":"df948f6a-f514-4e6b-b3fa-7462efbdf873","facility_type":"hotel-spa","bath_policy":"gender-bath","country_code":"KR","city":null,"latitude":37.523927,"longitude":127.0529789,"coordinate_source":"naver"},{"id":"5b6a9a8c-e624-4161-b50a-9b9f7b3acb4b","facility_type":"public-bath","bath_policy":"gender-bath","country_code":"KR","city":null,"latitude":36.3547421,"longitude":127.344454,"coordinate_source":"naver"},{"id":"d18a5bf4-cfb0-4ae6-85a3-4a4971639777","facility_type":"public-bath","bath_policy":"gender-bath","country_code":"KR","city":"Yangsan","latitude":35.3847887,"longitude":129.1535631,"coordinate_source":"naver"},{"id":"004a435b-b6b3-443e-861c-3a44cf81356a","facility_type":"hotel-spa","bath_policy":"gender-bath","country_code":"KR","city":null,"latitude":37.5644687,"longitude":126.9800462,"coordinate_source":"naver"},{"id":"924e2423-d068-40c5-a4f1-3f9031565942","facility_type":"public-bath","bath_policy":"gender-bath","country_code":"KR","city":null,"latitude":37.4802483,"longitude":127.1247596,"coordinate_source":"naver"},{"id":"0422e887-3dbd-4213-b70e-1fd5f2b8aeed","facility_type":"public-bath","bath_policy":"gender-bath","country_code":"KR","city":"Yangju-si","latitude":37.8202275,"longitude":127.0928125,"coordinate_source":"naver"},{"id":"0eac2c4e-2245-4455-ad4a-c0f86f47380d","facility_type":"public-bath","bath_policy":"gender-bath","country_code":"KR","city":null,"latitude":35.2211495,"longitude":129.0826866,"coordinate_source":"naver"},{"id":"04a4e31b-a044-4343-b721-774713545416","facility_type":"public-bath","bath_policy":"gender-bath","country_code":"KR","city":"Yongin-si","latitude":37.3203024,"longitude":127.1104158,"coordinate_source":"naver"},{"id":"17875739-e6c9-414d-80ff-e3c550e99bbc","facility_type":"hotel-spa","bath_policy":"gender-bath","country_code":"KR","city":"Pocheon-si","latitude":38.0655081,"longitude":127.3144505,"coordinate_source":"naver"},{"id":"f628ea0e-c04f-4c1b-8908-f09a322f8cca","facility_type":"small-bath","bath_policy":"gender-bath","country_code":"KR","city":null,"latitude":35.1986438,"longitude":129.1041569,"coordinate_source":"naver"},{"id":"88b0fba8-d458-436f-a135-537a62709cd1","facility_type":"private-sauna","bath_policy":"gender-bath","country_code":"KR","city":null,"latitude":37.5948942,"longitude":127.0181807,"coordinate_source":"naver"},{"id":"696e7291-a636-4d12-b1fb-9e896f04c48c","facility_type":"public-bath","bath_policy":"gender-bath","country_code":"KR","city":"Yangju-si","latitude":37.8346998,"longitude":127.0656471,"coordinate_source":"naver"},{"id":"ce21515f-f766-4dc5-a9a5-487070a6d240","facility_type":"hotel-spa","bath_policy":"gender-bath","country_code":"KR","city":null,"latitude":37.555169,"longitude":127.1107738,"coordinate_source":"naver"},{"id":"3cb4d74b-28aa-4d8d-9736-fb318e8cdf95","facility_type":"small-bath","bath_policy":"gender-bath","country_code":"KR","city":null,"latitude":37.558568,"longitude":126.9051753,"coordinate_source":"naver"},{"id":"59598b27-f483-456a-ba23-6fafc68f06da","facility_type":"public-bath","bath_policy":"gender-bath","country_code":"KR","city":"Pocheon-si","latitude":37.9675845,"longitude":127.3286375,"coordinate_source":"naver"},{"id":"d7a40701-f0fd-4703-8b16-ed33c001a248","facility_type":"special","bath_policy":"mixed","country_code":"KR","city":"Chuncheon","latitude":37.8698756,"longitude":127.7059006,"coordinate_source":"naver"},{"id":"12b5bf28-8624-4962-8646-990451fc23c6","facility_type":"public-bath","bath_policy":"gender-bath","country_code":"KR","city":"Gangneung","latitude":37.7562357,"longitude":128.8711329,"coordinate_source":"naver"},{"id":"681bc0a1-39ac-41fa-865a-c631c7574a23","facility_type":"hotel-spa","bath_policy":"gender-bath","country_code":"KR","city":null,"latitude":37.6632824,"longitude":127.0086662,"coordinate_source":"naver"},{"id":"48cd5f1b-1215-45fc-bdfc-e596ae9d9430","facility_type":"hotel-spa","bath_policy":"gender-bath","country_code":"KR","city":null,"latitude":37.4490135,"longitude":127.0547297,"coordinate_source":"naver"},{"id":"b53ef065-b516-4927-82e9-4ed2d5459b2b","facility_type":"hotel-spa","bath_policy":"gender-bath","country_code":"KR","city":"Asan-si","latitude":36.78347,"longitude":126.9996927,"coordinate_source":"naver"},{"id":"8722bf99-9ba7-429c-8fe7-968604bf9ce2","facility_type":"public-bath","bath_policy":"gender-bath","country_code":"KR","city":null,"latitude":37.5359724,"longitude":126.8780154,"coordinate_source":"naver"}],"place_sources":[{"place_id":"c8774a4a-2b01-4218-a535-45d3b52324c1","name_original":"삼호궁전사우나","address_original":"서울특별시 서초구 논현로 87","source":"naver","external_id":"1270442278_374775719"},{"place_id":"ae8fbc09-4140-4598-a622-666321a3841f","name_original":"킹사우나찜질방","address_original":"경상남도 창원시 성산구 마디미로43번길 10 5층501,6층601","source":"naver","external_id":"1286840760_352201375"},{"place_id":"82cc6aa1-0573-466b-a5aa-f6370e003884","name_original":"호텔더디자이너스 서울역점 남성전용 사우나","address_original":"서울특별시 용산구 한강대로 305 호텔더디자이너스 서울역점 지하2층","source":"naver","external_id":"1269715771_375455592"},{"place_id":"87702ab3-6296-4789-91ea-8493d91a2de7","name_original":"실로암사우나","address_original":"서울특별시 광진구 용마산로 171","source":"naver","external_id":"1270855322_375691287"},{"place_id":"f73d775a-7b46-423e-970b-10c9c294541e","name_original":"하남사우나","address_original":"서울특별시 용산구 후암로28길 38","source":"naver","external_id":"1269792741_375493312"},{"place_id":"ec2c5821-f2b8-4537-b405-98c430fa5769","name_original":"북수원 온천","address_original":"경기도 수원시 장안구 서부로 2139 SK허브 8, 9층","source":"naver","external_id":"1269716659_372994568"},{"place_id":"5dc18d60-72d1-4c9f-ac2a-f604b11f9399","name_original":"Spa Alps","address_original":"292-1, Yamamuro, Toyama, Japan","source":"google","external_id":"ChIJW201gQCR918RW2IjMj-yR-o"},{"place_id":"696e7291-a636-4d12-b1fb-9e896f04c48c","name_original":"24시인아사우나","address_original":"경기도 양주시 고암길 358","source":"naver","external_id":"1270656471_378346998"},{"place_id":"06dd629e-06f7-43cb-b5e7-904b2b7314be","name_original":"Hakusan-yu Takatsuji","address_original":"665, Funayachō, Shimogyo Ward, Kyoto, Japan","source":"google","external_id":"ChIJJxGZY54IAWARFrIPPPXlpwU"},{"place_id":"bffe68b0-ddd5-4d78-b15d-6c8d014636dd","name_original":"BOTANICAL POOL CLUB","address_original":"1510-2, Shimosakuma, Kyonan, Chiba, Japan","source":"google","external_id":"ChIJG9fBOtAdGGARANG_qzLXz-U"},{"place_id":"11c6e15b-e3ac-4acc-9ebc-95cbcf8ae0fd","name_original":"Onyado Nono Nanba","address_original":"1-chōme-4-18, Nipponbashi, Chuo Ward, Osaka, Japan","source":"google","external_id":"ChIJIx5hp2rnAGAR8YNxqZbCux8"},{"place_id":"dc98375b-d9f0-4f3c-9256-6df1bfb90b45","name_original":"아라고나이트 고온천","address_original":"제주특별자치도 서귀포시 안덕면 산록남로 762번길 71","source":"manual","external_id":null},{"place_id":"eb0daeb3-4ded-4c6f-a3fe-99f2f0811e1e","name_original":"군인공제회관 M스포렉스","address_original":"서울특별시 강남구 남부순환로 2806 군인공제회관","source":"naver","external_id":"1270529027_374892010"},{"place_id":"676e4785-368b-47e6-8597-3c52867cbb5c","name_original":"강변스파랜드","address_original":"서울특별시 광진구 구의강변로 45","source":"naver","external_id":"1270915530_375349200"},{"place_id":"f3f922b3-94b3-4bb2-9085-ac7d1b5cb99d","name_original":"CYCL","address_original":"479-107, Hirano, Yamanakako, Yamanashi, Japan","source":"google","external_id":"ChIJP6NwrFFvGWAR4gcwxCI0lhw"},{"place_id":"df8ce37c-4a79-4e9a-9d36-c5a5d8e44b99","name_original":"Yuyado Daiichi","address_original":"518, Yōrōushi, Nakashibetsu, Hokkaido, Japan","source":"google","external_id":"ChIJAxNUPLkKbV8R-sxqGktRVkw"},{"place_id":"a887626e-0f2c-4385-aed1-c75c052649c3","name_original":"Wagamachi Sauna","address_original":"1-chōme-1-4, Ōhiraki, Fukushima Ward, Osaka, Japan","source":"google","external_id":"ChIJhXJcN4fnAGARc7-iDhBWZVU"},{"place_id":"b25808c0-1cff-4c90-a13b-70d847eb96ce","name_original":"Noboribetsu Grand Hotel","address_original":"154, Noboribetsuonsenchō, Noboribetsu, Hokkaido, Japan","source":"google","external_id":"ChIJnSiZScZmdV8Rui-ZB43nN18"},{"place_id":"0130e29a-430a-49f0-afdf-4f414cd288f8","name_original":"Hiki stargazing sauna","address_original":"8-17, Nekoyachō, Naka Ward, Hiroshima, Japan","source":"google","external_id":"ChIJoynrMiSjWjURrnvE_IfD7SI"},{"place_id":"8ec5199d-a7e9-46ae-951f-e71536006af8","name_original":"Bathhouse Williamsburg","address_original":"103 North 10th Street, Brooklyn, Williamsburg, New York, United States","source":"google","external_id":"ChIJBTF_ACxZwokRk8y1ICME3F4"},{"place_id":"9ac220df-2a42-4b1d-8969-4e0b57830f82","name_original":"Elamus Spa","address_original":"30 Akadeemia tee, Mustamäe, Tallinn, Harju maakond, Estonia","source":"google","external_id":"ChIJZYUkv0qVkkYR7U-wlEsybnE"},{"place_id":"a666495a-e40a-4fcc-b0d2-7360bfb18693","name_original":"Friedrichsbad Baden-Baden","address_original":"1 Römerplatz, Baden-Baden, Baden-Württemberg, Germany","source":"google","external_id":"ChIJkS-PNUEfl0cRrGzALrZ1qUI"},{"place_id":"13d9f01a-f05b-43ab-bc0a-88eec3dcfe24","name_original":"Hotta-yu sento","address_original":"3-chōme-20-14, Sekibara, Adachi City, Tokyo, Japan","source":"google","external_id":"ChIJfakvb-GRGGAR_AWZXCQ3-zc"},{"place_id":"07da6b4f-e085-4660-b03a-4ff0d3300601","name_original":"Janu Tokyo","address_original":"1-chōme-2-1, Azabudai, Minato City, Tokyo, Japan","source":"google","external_id":"ChIJEWV5V2-LGGARWr133cObY_8"},{"place_id":"75e65305-386d-4efd-bcec-4725206265fd","name_original":"Kalma Saun","address_original":"9A Vana-Kalamaja tänav, Põhja-Tallinna linnaosa, Tallinn, Harju maakond, Estonia","source":"google","external_id":"ChIJvztCf3uTkkYRBg4C6_5-TJo"},{"place_id":"7e41a924-5341-47df-9292-411dd1750941","name_original":"Kuusijärvi","address_original":"3 Kuusijärventie, Vanda, Nyland, Finland","source":"google","external_id":"ChIJf0AkBfAGkkYRtj_h8zh5U9Y"},{"place_id":"210ab5eb-2f11-4acc-abec-745659e86602","name_original":"Rauhaniemi Folk Spa","address_original":"23 b Rauhaniementie, Tampere, Pirkanmaa, Finland","source":"google","external_id":"ChIJ6ziEnk0nj0YRFng5kJV3RYs"},{"place_id":"273d4c33-bc2f-44ad-8c56-be9fe02585f3","name_original":"Löyly Helsinki","address_original":"4 Hernesaarenranta, Helsinki, Uusimaa, Finland","source":"google","external_id":"ChIJ7WWs57ELkkYRJJRbVu2rgfo"},{"place_id":"b8211df0-7c6a-4a78-b870-06dc5c83f540","name_original":"Onsen Balcony King&Queen","address_original":"2-chōme-271, Kitanaka, Tokorozawa, Saitama, Japan","source":"google","external_id":"ChIJ98SofQDfGGARBWU0fd99CAU"},{"place_id":"b6aaadfd-8835-4fcc-bb66-62fbea4c3402","name_original":"Othership Flatiron","address_original":"23 West 20th Street, Manhattan, New York, United States","source":"google","external_id":"ChIJKxPbBwBZwokRkGZEW6k9FsU"},{"place_id":"22c04b88-eee9-4e64-9bb3-8aa331a77208","name_original":"Rajaportti sauna","address_original":"9 Pispalan valtatie, Tampere, Pirkanmaa, Finland","source":"google","external_id":"ChIJO38bvJnYjkYRmeFo6-LHMKk"},{"place_id":"94b7a83a-d1da-42df-9115-1b2a30d2efc5","name_original":"SATOYAMA TERRACE","address_original":"898, Tabara, Futtsu, Chiba, Japan","source":"google","external_id":"ChIJyWKh7tkFGGARV1W14IYBl8E"},{"place_id":"0eca346f-c889-4abe-84ce-200ffb5a92c0","name_original":"KIWAMI SAUNA Osu","address_original":"1-chōme-4-12, Tachibana, Naka Ward, Nagoya, Aichi, Japan","source":"google","external_id":"ChIJw9j0NgB3A2ARGGFFJ0VXZrQ"},{"place_id":"0c80856e-974c-481c-9190-556143d7dfa1","name_original":"SAUNA SAKURADO","address_original":"9-5, Tsunabamachi, Hakata Ward, Fukuoka, Japan","source":"google","external_id":"ChIJtXyDOQCRQTURGtklWZ6iw4o"},{"place_id":"9fa63f79-f180-456e-8c9e-0b7ca752d2b4","name_original":"AIRE Ancient Baths Barcelona","address_original":"22 Passeig de Picasso, Ciutat Vella, Barcelona, Catalunya, Spain","source":"google","external_id":"ChIJ_dPAk_2ipBIR4JAJ7OLhr-U"},{"place_id":"0e03904b-60c1-4c74-912a-31e1f1c22ef0","name_original":"Therme Erding","address_original":"1-5 Thermenallee, Erding, Bayern, Germany","source":"google","external_id":"ChIJH8EL2U4QnkcReD2Uos8B02k"},{"place_id":"3b2f385c-ce86-465e-bb81-dcf42950a33e","name_original":"Yulax","address_original":"722, Honjōmachi, Chuo Ward, Kumamoto, Japan","source":"google","external_id":"ChIJyT9mQGL0QDURS8dXwtWQErM"},{"place_id":"a5414757-8ad8-4d80-a18b-070365715b23","name_original":"SKY SPA Yokohama","address_original":"2-chōme-19-12, Takashima, Nishi Ward, Yokohama, Kanagawa, Japan","source":"google","external_id":"ChIJdx0GWRNcGGARRyDTpB_Y-Hs"},{"place_id":"346d8006-958e-491e-9cfd-11f66ace5299","name_original":"TREATMENT SAUNA STEAMS.","address_original":"9-chōme-5-12, Akasaka, Minato City, Tokyo, Japan","source":"google","external_id":"ChIJ9WeNJsOLGGARTur9CPlVn-E"},{"place_id":"5b79400d-f1a2-4319-b4e7-714d7f0dfb8e","name_original":"The Sauna","address_original":"379-2, Nojiri, Shinano, Nagano, Japan","source":"google","external_id":"ChIJoTLAbHsj9l8R4FkHsttXvls"},{"place_id":"71419a5e-fa58-4720-a1a3-b31469060381","name_original":"Kitakobushi Shiretoko Hotel & Resort","address_original":"172, Utorohigashi, Shari, Hokkaido, Japan","source":"google","external_id":"ChIJYULQXfOGHWARbtb0lpU_0Mc"},{"place_id":"5cf44bec-80f8-4ec2-9071-f91d778b7bdd","name_original":"Mifuneyama Rakuen Hotel","address_original":"4100, Takeochō Ōaza Takeo, Takeo, Saga, Japan","source":"google","external_id":"ChIJjz3R_10oQDUR5Q3OzKCuuYg"},{"place_id":"35c8b2bc-7a4a-4cb0-9596-505c267cccfc","name_original":"Ochiairo","address_original":"1887-1, Yugashima, Izu, Shizuoka, Japan","source":"google","external_id":"ChIJkfwEV4zuGWARQKDL76-5x2A"},{"place_id":"c0490635-2f7f-4234-acd5-12552acfe011","name_original":"Nukatoyuge","address_original":"941-1, Mineyamachō Sugitani, Kyotango, Kyoto, Japan","source":"google","external_id":"ChIJ5x1POk-9_18RkYwPcdlUgK4"},{"place_id":"2a0571a3-e91c-46bf-b47f-abec3312337f","name_original":"Kannojigoku Hotel","address_original":"257, Tano, Kokonoe, Oita, Japan","source":"google","external_id":"ChIJCRE0o7s1QTURS8eE60_EVcs"},{"place_id":"50e2c66d-6f82-4064-ad8a-4fbf4a9baeaa","name_original":"신호사우나","address_original":"서울특별시 용산구 장문로 98-1 1층","source":"naver","external_id":"1270006091_375260431"},{"place_id":"75501e34-7d98-4dd4-893c-9258688dfa79","name_original":"갈곶목욕탕","address_original":"경기도 오산시 오산로 18","source":"naver","external_id":"1270676411_371286137"},{"place_id":"ca118a6e-453d-4240-a4ba-d7f36b12187a","name_original":"Wellbe Sakae","address_original":"3-chōme-13-12, Sakae, Naka Ward, Nagoya, Aichi, Japan","source":"google","external_id":"ChIJgaTQU9JwA2ARu_5EEb6vxac"},{"place_id":"0194d562-609f-46c0-8310-674b3e7593f7","name_original":"Jungle Photo Land","address_original":"2599, Izumi, Motobu, Okinawa, Japan","source":"google","external_id":"ChIJMwrj1vv55DQR9BzAnzOhbnA"},{"place_id":"908c8ab7-7ee3-4593-80f9-42c7dac2d9f8","name_original":"Shibuya Saunas","address_original":"18-9, Sakuragaokachō, Shibuya, Tokyo, Japan","source":"google","external_id":"ChIJpzjfMsyLGGARYO1X1qbsAnU"},{"place_id":"5051b444-0ed3-4188-9cf0-c96b5c351585","name_original":"Osaka Sauna DESSE","address_original":"3-chōme-6-13, Minamisenba, Chuo Ward, Osaka, Japan","source":"google","external_id":"ChIJtTbI_UznAGARt0Ww5f65y00"},{"place_id":"505b93a1-2e23-4946-8599-7e42103e3df9","name_original":"간월산온천","address_original":"울산광역시 울주군 상북면 알프스온천4길 26 간월산온천","source":"naver","external_id":"1290723002_355561907"},{"place_id":"58b4bb93-cf75-4195-8a2a-996a5f894cc1","name_original":"한림탕","address_original":"제주특별자치도 제주시 한림읍 한림로 685-10","source":"naver","external_id":null},{"place_id":"3bb75020-b6c8-479c-916c-7c08a5ad21c9","name_original":"리버사우나","address_original":"서울특별시 용산구 이촌로84길 9 유일빌딩 지하2, 3층","source":"naver","external_id":null},{"place_id":"32920bd6-49c8-4660-8db2-5f27c9bf19c0","name_original":"소금강스파","address_original":"강원특별자치도 강릉시 연곡면 진고개로 2418-30 1층","source":"naver","external_id":null},{"place_id":"1c8ecb4a-f445-484f-9b29-aa5031f50a7a","name_original":"봉래탕","address_original":"부산광역시 영도구 대교로2번길 7 2층","source":"naver","external_id":null},{"place_id":"15a8b840-9dcc-48b0-b5bd-d3ee86db5c61","name_original":"서울사우나 휘트니스","address_original":"제주특별자치도 제주시 노형로 283","source":"naver","external_id":null},{"place_id":"4926fac9-01c2-4ea5-8657-1e7b8ff376df","name_original":"인천조탕","address_original":"인천광역시 중구 용유서로 30","source":"naver","external_id":null},{"place_id":"fa8ca9dc-5987-4db1-8468-2a2011a6a8b4","name_original":"라파사우나찜질방","address_original":"서울특별시 송파구 오금로 396 지하1층","source":"naver","external_id":null},{"place_id":"69786b8a-804d-4773-bf07-921bc92871ce","name_original":"동아온천사우나","address_original":"대전광역시 유성구 온천로 59","source":"naver","external_id":null},{"place_id":"4ea45563-6c82-4e87-b9a5-db102aa88ed7","name_original":"파라다이스시티 씨메르","address_original":"인천광역시 중구 영종해안남로321번길 186","source":"naver","external_id":null},{"place_id":"49bcf998-94e3-41cc-b756-c18a07b3f223","name_original":"Sauna Tokyo","address_original":"3-chōme-13-4, Akasaka, Minato City, Tokyo, Japan","source":"google","external_id":"ChIJCXXkNHeLGGARq3ixFKm7m5w"},{"place_id":"e48b7d91-ab77-46c3-a172-089fc008c766","name_original":"Kumeya","address_original":"454-5, Takakaichō, Omihachiman, Shiga, Japan","source":"google","external_id":"ChIJ4b5x_gh7AWARGNRQiRY2XQw"},{"place_id":"aaaab99f-5f19-408a-a27d-aade23e5d3ba","name_original":"TSUKAHARA KARAFURO","address_original":"1050-4, Shōwa, Sanuki, Kagawa, Japan","source":"google","external_id":"ChIJZ0nTw92VUzUR7RqGiSjdIvk"},{"place_id":"58de0934-9dfe-4086-b622-b9d82e8efa52","name_original":"Taikou-no-Yu Hot Spring","address_original":"Arimachō, Kita Ward, Kobe, Hyogo, Japan","source":"google","external_id":"ChIJgZSbjEKKAGARj2-20HeR-OQ"},{"place_id":"6e6c9999-03f8-495a-a63c-3e28f14efb85","name_original":"거북목욕탕","address_original":"충청북도 청주시 흥덕구 복대로175번길 9-2","source":"naver","external_id":"1274400500_366320654"},{"place_id":"6ed6bb25-543e-4fdd-8be1-96e5099f1721","name_original":"Shinagawa Sauna","address_original":"1-chōme-6-1, Ōi, Shinagawa City, Tokyo, Japan","source":"google","external_id":"ChIJs-YjKQCLGGARyxekaAaL6Pk"},{"place_id":"95a65323-11ae-4251-86c9-7f115ba83911","name_original":"Aomoriya by Hoshino Resorts","address_original":"Horikirizawa-56, Inuotose, Misawa, Aomori, Japan","source":"google","external_id":"ChIJ6_Yie81dm18RTybdewmBTCY"},{"place_id":"c0bd8983-6e5f-49f7-b17d-b2ae4a9d5c17","name_original":"Shiriuchi Onsen Kokyu no Ma","address_original":"284, Yunosato, Shiriuchi, Hokkaido, Japan","source":"google","external_id":"ChIJySLX44HInl8R9UJ0LhM_8Po"},{"place_id":"44cb9251-f776-4d02-8f25-47ca4d66baf3","name_original":"Spa Metsa Sendai Ryusenji no Yu","address_original":"2-chōme-５-9, Ōsawa, Izumi Ward, Sendai, Miyagi, Japan","source":"google","external_id":"ChIJ8-5U8YCBiV8RExnd9rCyhnc"},{"place_id":"40046f1e-fa31-4b9d-8e63-dc9dc5ed9adf","name_original":"스포테라","address_original":"서울특별시 강남구 영동대로 416 케이티앤지타워 지하2층","source":"manual","external_id":null},{"place_id":"b1879d2d-0e1a-4258-8179-ec7042403880","name_original":"건강나라","address_original":"서울특별시 동대문구 왕산로37길 39","source":"naver","external_id":"1270439002_375816959"},{"place_id":"d42dba7f-5507-4f10-aed5-7b81c130bcc6","name_original":"계룡스파텔대온천탕","address_original":"대전광역시 유성구 온천로 81","source":"naver","external_id":"1273482568_363550473"},{"place_id":"11c8d769-db13-4130-b80a-b316185f297a","name_original":"고려사우나","address_original":"서울특별시 송파구 송파대로27길 30 태림빌딩","source":"naver","external_id":"1271159290_374909741"},{"place_id":"f5525324-1df0-4ce3-9793-b5425e86f312","name_original":"광안해수월드","address_original":"부산광역시 수영구 민락동 110-85","source":"naver","external_id":"1291337908_351551789"},{"place_id":"313d1211-4b5a-42b8-adfb-83fd746ffb2e","name_original":"국제광천수온천","address_original":"부산광역시 부산진구 거제대로 70 7, 8, 9층","source":"naver","external_id":"1290682308_351748637"},{"place_id":"1c7c7122-14c7-410a-82d2-62fddf842143","name_original":"군불로","address_original":"경상북도 청도군 각북면 낙산1길 51","source":"naver","external_id":"1285714562_356903014"},{"place_id":"5bed4463-bb17-42a2-88eb-f7e20c1eb955","name_original":"그랜드 하얏트 서울","address_original":"서울특별시 용산구 소월로 322","source":"naver","external_id":"1269974520_375396013"},{"place_id":"aa929b86-d792-4c4f-8ef2-a0b6de8882ca","name_original":"금샘탕","address_original":"부산광역시 금정구 금샘로578번길 46","source":"naver","external_id":"1290873249_352731237"},{"place_id":"1a0d1987-e8d3-4982-bb66-0a60c9c18aa8","name_original":"금정산부곡온천","address_original":"부산광역시 금정구 수림로20번길 36 3. 4, 5층","source":"naver","external_id":"1290907349_352415092"},{"place_id":"8181ca98-c0d2-448a-874c-d05a9e3d268a","name_original":"김녕용암해수사우나","address_original":"제주특별자치도 제주시 구좌읍 김녕로21길 8","source":"naver","external_id":"1267559858_335566969"},{"place_id":"78d91d1c-d7cd-4818-8a94-521a24b48a4f","name_original":"난곡목욕탕","address_original":"서울특별시 관악구 난곡로24가길 12","source":"naver","external_id":"1269212500_374696510"},{"place_id":"9141a630-dffe-4bfe-b76b-3080ba1f97d4","name_original":"녹천탕","address_original":"부산광역시 동래구 금강공원로26번길 32","source":"naver","external_id":"1290815950_352204606"},{"place_id":"0be3cf82-87af-4571-84c0-2d263ffdffad","name_original":"Koganeyu","address_original":"4-chōme-14-6, Taihei, Sumida City, Tokyo, Japan","source":"google","external_id":"ChIJc5oUv9WIGGARu20d1daLWBE"},{"place_id":"55a14cf6-735c-4866-b969-b55bedd93643","name_original":"대성관","address_original":"부산광역시 북구 금곡대로199번길 12","source":"naver","external_id":"1290103476_352269653"},{"place_id":"6d05bd50-5c1c-4e79-a83a-31b5461a161d","name_original":"대영온천","address_original":"부산광역시 남구 황령대로492번길 10","source":"naver","external_id":"1291068357_351378781"},{"place_id":"c709861a-51b9-4123-bfd7-88d4ba5aa96a","name_original":"그린사우나","address_original":"경기도 광주시 포돌이로 15","source":"naver","external_id":"1272495559_374146044"},{"place_id":"299bc843-7078-448e-bf71-0a313e37d3ac","name_original":"더케이호텔경주 스파온천","address_original":"경상북도 경주시 엑스포로 45 더케이호텔","source":"naver","external_id":"1292920168_358386135"},{"place_id":"9a65005f-0cba-43be-a277-d3daaf177e5b","name_original":"더파크 스파랜드","address_original":"서울특별시 영등포구 선유동1로 50 A동 지하1층","source":"naver","external_id":"1268927850_375266499"},{"place_id":"d7a00239-388d-4f20-b64f-ad2081ef8937","name_original":"도미인 EXPRESS 서울 인사동","address_original":"서울특별시 종로구 인사동길 20-9","source":"naver","external_id":"1269871734_375723948"},{"place_id":"bb9f34e7-260f-4b89-9dbe-7f7c7f6fb751","name_original":"도봉산 24시 불한증막 사우나","address_original":"경기도 의정부시 평화로 252 지하1층","source":"naver","external_id":"1270480160_377144440"},{"place_id":"c9ed70b6-1825-42c8-bafe-05f4105d7eb2","name_original":"도산원탕","address_original":"경상북도 안동시 도산면 온천로 570","source":"naver","external_id":"1288201553_367505526"},{"place_id":"f8308e42-2a63-4508-9190-84c3f8aea7f2","name_original":"동부사우나","address_original":"경기도 양평군 양평읍 양근리","source":"naver","external_id":"1274963815_374901198"},{"place_id":"7125e831-8b99-4843-8494-0f489b9990b6","name_original":"Bettei Senjyuan","address_original":"614, Tanigawa, Minakami, Gunma, Japan","source":"google","external_id":"ChIJYYiWRIkTHmARWmZDqfqQQhM"},{"place_id":"7a76b1ea-9ef1-4c15-a34d-778ae95e7fff","name_original":"더앤리조트스파","address_original":"강원 양양군 현남면 개매길 260","source":"naver","external_id":"http://www.thenresort.com/"},{"place_id":"5027bb58-cf2c-46e3-8f70-e4145cd43565","name_original":"동양사우나","address_original":"서울특별시 은평구 가좌로7길 11","source":"naver","external_id":"1269200018_375863578"},{"place_id":"88b0fba8-d458-436f-a135-537a62709cd1","name_original":"단오풍정","address_original":"서울특별시 성북구 동소문로25길 13 1층","source":"naver","external_id":"1270181807_375948942"},{"place_id":"39104a83-cb27-4722-98b4-ad87305a49a2","name_original":"관악24시불가마사우나","address_original":"서울특별시 관악구 관악로 212 관악프라자","source":"naver","external_id":"1269550750_374834845"},{"place_id":"c9666cf7-e742-4bb9-a2dd-f68e54f4d466","name_original":"온유재스파마사지 상무점","address_original":"광주광역시 서구 시청로 57 2층 201호","source":"naver","external_id":"1268511675_351536442"},{"place_id":"29be5f74-684c-40a3-b0c8-95a2befe79cb","name_original":"그랜드 하얏트 인천","address_original":"인천광역시 중구 영종해안남로321번길 208","source":"naver","external_id":"1264575405_374405294"},{"place_id":"54736d75-3fff-4408-b0f9-a2e0844e1cc7","name_original":"금천파크온천호텔","address_original":"부산광역시 동래구 금강로 140-1","source":"naver","external_id":"1290809024_352211206"},{"place_id":"25d28906-a9a9-472d-ab2e-e4cb0e15f818","name_original":"24시사우나 네이버한방스파","address_original":"서울특별시 마포구 큰우물로 53 지하 1층","source":"naver","external_id":"1269446458_375422664"},{"place_id":"2fddb961-3f8f-40af-a5f5-38c34205aaec","name_original":"능암탄산온천","address_original":"충청북도 충주시 앙성면 새바지길 37","source":"naver","external_id":"1278022052_370936742"},{"place_id":"437f289a-27ef-467b-b612-afd13f601499","name_original":"덕구온천스파월드","address_original":"경상북도 울진군 북면 덕구온천로 924","source":"naver","external_id":"1292835294_370788137"},{"place_id":"84535bd6-81a1-42aa-b778-c45302e63ad3","name_original":"도미인 서울 강남","address_original":"서울특별시 강남구 봉은사로 134","source":"naver","external_id":"1270294946_375056299"},{"place_id":"d55bca86-7fbc-43b3-a482-5b9528683ab2","name_original":"동방온천사우나","address_original":"부산광역시 동래구 금강로106번길 3 2층, 3층","source":"naver","external_id":"1290796963_352183801"},{"place_id":"df5d08f4-dff5-410e-801a-a2f2ba60d01d","name_original":"라성보석사우나","address_original":"서울특별시 성동구 성수이로 118 성수아카데미타워 1층","source":"naver","external_id":"1270575210_375449190"},{"place_id":"f4bd04a9-9066-4650-9cfa-2eb2c8107fd1","name_original":"로데오 스파","address_original":"서울특별시 강남구 선릉로 823 한양타운빌딩 지하2층","source":"naver","external_id":"1270393899_375256156"},{"place_id":"b90b9470-d9ad-499b-93c2-edab9fdbfed7","name_original":"강남목욕탕","address_original":"충청남도 천안시 동남구 신부12길 40-8","source":"naver","external_id":"1271624448_368177059"},{"place_id":"bc17f4cb-e287-47d4-a62b-9a30bf31c32a","name_original":"네이처스파","address_original":"경기도 파주시 교하로 677-20","source":"naver","external_id":"1267043262_377089364"},{"place_id":"e803c330-f6a1-42e9-bf7e-71dad2925b48","name_original":"골드로즈사우나","address_original":"서울특별시 강남구 선릉로86길 31 롯데골드로즈2","source":"naver","external_id":"1270520244_375042023"},{"place_id":"25ca7ae4-83d1-4fcc-b008-29f35aabc91a","name_original":"버핏그라운드 광화문","address_original":"서울특별시 중구 세종대로 136 B1, B2층","source":"naver","external_id":"1269782701_375684246"},{"place_id":"1139001e-593d-4a18-941e-ed556d2f5be1","name_original":"선수촌사우나","address_original":"서울특별시 송파구 양재대로 1164 지하 1층","source":"naver","external_id":"1271284000_375111167"},{"place_id":"a4ffb01e-e50c-453f-b252-7a0933133c48","name_original":"메가스파사우나","address_original":"경기도 수원시 장안구 송원로 81 매가플러스(3차) 7층","source":"naver","external_id":"1270093259_373021371"},{"place_id":"eda15ebd-3c29-40b4-bf6e-ec480fe9bbd9","name_original":"북한산온천비젠","address_original":"경기도 고양시 덕양구 중고개길 88-10 북한산온천","source":"naver","external_id":"1269329519_376591870"},{"place_id":"8df154b1-0301-4502-8368-0fbe6bfbff19","name_original":"성지연사우나","address_original":"서울특별시 강남구 테헤란로 313 지하2층","source":"naver","external_id":"1270454597_375037548"},{"place_id":"9e2b9559-c535-4ba3-a354-69bdedbc39ae","name_original":"청송 솔기온천","address_original":"경상북도 청송군 청송읍 중앙로 315","source":"naver","external_id":"1290629165_364359291"},{"place_id":"b4e22611-a8a9-426b-8a92-7b92cb3c425a","name_original":"수안보파크호텔","address_original":"충청북도 충주시 수안보면 탑골1길 36","source":"naver","external_id":"1279805827_368446827"},{"place_id":"38ba9867-4e60-4f26-97ad-46245d867df5","name_original":"스파디움24","address_original":"경기도 남양주시 다산순환로 20 다산현대프리미어캠퍼스 C동 B1층","source":"naver","external_id":"1271527702_376131034"},{"place_id":"f2f77663-ccab-4c4d-861a-a2a5a0f2d816","name_original":"saunahouse（サウナハウス）","address_original":"5-1, Ogawachō, Kawasaki Ward, Kawasaki, Kanagawa, Japan","source":"google","external_id":"ChIJd3rYZgBhGGARyKhk7fvHAyI"},{"place_id":"f06195fa-15bc-4a66-b0e0-90068a70075b","name_original":"베뉴지아쿠아24","address_original":"서울특별시 강서구 화곡로 347 지하2층 베뉴지아쿠아&베뉴지피트니스","source":"naver","external_id":"1268513356_375547094"},{"place_id":"2da65848-b31b-4dc9-badb-e621f6762190","name_original":"블루스파","address_original":"경기도 성남시 분당구 백현로 97 다운타운 9층","source":"naver","external_id":"1271114679_373768783"},{"place_id":"9fb780af-c1b1-4916-9944-139214811522","name_original":"상관리조트&스파","address_original":"전북특별자치도 완주군 상관면 죽림편백길 118-38","source":"naver","external_id":"1272075383_357442915"},{"place_id":"a7c48191-2334-42be-bc9a-da5c71610126","name_original":"Vabali","address_original":"6 Seydlitzstraße, Mitte, Berlin, Germany","source":"google","external_id":"ChIJjfrdZphRqEcRT6O7Rn8rVLI"},{"place_id":"7e519017-1356-4b8b-8977-a425e93e68eb","name_original":"수정사우나","address_original":"서울특별시 서초구 반포대로21길 30 수정빌라","source":"naver","external_id":"1270081372_374874140"},{"place_id":"7319c949-c0af-4302-8f27-99ae38f78d49","name_original":"스파렉스 굿모닝시티","address_original":"서울특별시 중구 장충단로 247 굿모닝시티 쇼핑몰 스파렉스 지하3층","source":"naver","external_id":"1270071691_375669350"},{"place_id":"da7666e6-ea1d-4b4d-8bca-5290ac885ec0","name_original":"루하스사우나","address_original":"서울특별시 은평구 통일로 1022 지하1층 B109, B110, B111, 지하2층 B201호","source":"naver","external_id":"1269177389_376338023"},{"place_id":"0236da96-bfdd-47ae-85f0-3cfdc11bac27","name_original":"면역공방","address_original":"서울특별시 중구 퇴계로20길 2 지하2층 _퍼시픽호텔 지하","source":"naver","external_id":"1269852942_375598302"},{"place_id":"72dba5ca-1c84-4acb-ba51-2ed9a32bf324","name_original":"센텀 스파랜드","address_original":"부산광역시 해운대구 센텀남대로 35 신세계백화점센텀시티점","source":"naver","external_id":"1291290330_351683869"},{"place_id":"37fe3b33-4e51-4c28-ac65-3e3bd424ee0a","name_original":"솔로사우나 레포","address_original":"경기도 광명시 일직로 22 효성 해링턴타워 더퍼스트 309호","source":"naver","external_id":"1268839949_374222701"},{"place_id":"1d12baf4-c15f-4220-a8e8-eefdf90b6105","name_original":"설해원 온천사우나","address_original":"강원특별자치도 양양군 손양면 공항로 230 설해온천 스파레벨(B1)","source":"naver","external_id":"1286612931_380521936"},{"place_id":"7c59f5ab-fc9f-4e21-a7a0-6d4f96f8bb51","name_original":"마포365구민센터","address_original":"서울특별시 마포구 토정로 98","source":"naver","external_id":"1269218248_375443420"},{"place_id":"43469200-84c8-4df6-a643-1709282cfc43","name_original":"블루오션웰니스스파","address_original":"인천광역시 중구 자연대로 7 2층 201호","source":"naver","external_id":"1265624824_374864636"},{"place_id":"d6c19557-bbdc-4810-969b-23ae47bd5d95","name_original":"서울신라호텔","address_original":"서울특별시 중구 동호로 249","source":"naver","external_id":"1270051533_375558806"},{"place_id":"7273b6ab-3a88-4034-9ce1-02273afe7497","name_original":"솔로사우나레포 노량진점","address_original":"서울특별시 동작구 노들로2길 7 노량진드림스퀘어 A동 206호","source":"naver","external_id":"1269393186_375142424"},{"place_id":"bf69f204-a81b-45da-a17d-fd13f1986819","name_original":"숲속한방랜드","address_original":"서울특별시 서대문구 봉원사길 75-7","source":"naver","external_id":"1269455870_375702256"},{"place_id":"76249854-056d-4205-8a35-ef74454b284e","name_original":"보리여성불한증막","address_original":"서울특별시 강남구 선릉로130길 20 삼성래미안2차상가 지하1층","source":"naver","external_id":"1270428100_375165780"},{"place_id":"210be980-9882-4393-8e1f-a3febcba1fac","name_original":"황토와 소나무 불한증막","address_original":"전북특별자치도 정읍시 신태인읍 고산1길 2 황솔찜질방","source":"naver","external_id":"1268506556_357102828"},{"place_id":"1bf78094-de44-4fe1-b31e-5b107f344c93","name_original":"호수사우나","address_original":"충청남도 천안시 서북구 성성5로 121 1층2층","source":"naver","external_id":"1271354653_368442770"},{"place_id":"87791b43-5818-4d17-82af-ea423597c34c","name_original":"Midorinokaze Resort Kitayuzawa","address_original":"300-2, Ōtakiku Kitayuzawaonsenchō, Date, Hokkaido, Japan","source":"google","external_id":"ChIJ26524iBbdV8RhRg9unvgC6o"},{"place_id":"02f6aefe-30a8-4839-9c9b-85ee9fd36f7e","name_original":"Olivin Berlin Sauna Wellness Spa","address_original":"177 Schönhauser Allee, Bezirk Pankow, Berlin, Germany","source":"google","external_id":"ChIJoXzHquJRqEcRdlbipfBSQbg"},{"place_id":"282fb281-3693-40ba-9068-f111654b63d7","name_original":"만수탕","address_original":"부산광역시 사하구 장림시장5길 255","source":"naver","external_id":"1289716813_350789691"},{"place_id":"8f816080-568f-4353-a00e-5a40a2c8e62a","name_original":"봉개사우나","address_original":"제주특별자치도 제주시 번영로 576","source":"naver","external_id":"1266013774_334854325"},{"place_id":"60c460aa-dc90-47f8-9943-c69e1f099ea5","name_original":"산방산 탄산온천","address_original":"제주특별자치도 서귀포시 안덕면 사계북로41번길 192","source":"naver","external_id":"1262988035_332490187"},{"place_id":"f4b8a112-3043-4923-a146-17f3094e4557","name_original":"성수불막사우나","address_original":"서울특별시 성동구 동일로 143 성수1차대우아파트 지하1층","source":"naver","external_id":"1270655222_375454636"},{"place_id":"572dc7ce-a491-40e4-9102-40eb68ee65a6","name_original":"소노캄 경주","address_original":"경상북도 경주시 보문로 402-12 소노캄 경주","source":"naver","external_id":"1292818548_358465757"},{"place_id":"56f2246b-092e-4a4b-a8c4-15a96dcf3b34","name_original":"쉐레이암반수사우나","address_original":"서울특별시 종로구 진흥로 432 1층","source":"naver","external_id":"1269564599_376082382"},{"place_id":"1891a8c5-ddda-49d9-b8aa-6ac08acacd85","name_original":"동래 반도 온천","address_original":"부산광역시 동래구 금강공원로 37","source":"naver","external_id":"1290804952_352183275"},{"place_id":"0a53b809-64db-4baf-8746-8c5809c80ddc","name_original":"석정온천휴스파","address_original":"전북특별자치도 고창군 고창읍 석정2로 173","source":"naver","external_id":"1267410118_354320400"},{"place_id":"317665c5-034b-4b50-98a7-f4e953b7cde3","name_original":"소노벨청송 솔샘온천","address_original":"경상북도 청송군 주왕산면 소노로 38 소노벨 청송 지하3층","source":"naver","external_id":"1291104486_363766389"},{"place_id":"ada7d237-fb1c-4b16-b7ac-8bcdc1ff49fb","name_original":"Kairyou-yu","address_original":"2-chōme-19-9, Higashi, Shibuya, Tokyo, Japan","source":"google","external_id":"ChIJ2-qK3EKLGGARns7TXQln2ac"},{"place_id":"a41aac90-7f91-48e9-9749-b0b65f5d7bc3","name_original":"매일온천","address_original":"서울특별시 광진구 자양로53길 109","source":"naver","external_id":"1270891734_375569134"},{"place_id":"b72b4e90-85bf-4028-8ed0-873faef2f42b","name_original":"봉일스파랜드","address_original":"서울특별시 관악구 은천로 28 봉일프라자","source":"naver","external_id":"1269384848_374858032"},{"place_id":"e10a54f2-98b3-421f-ab71-225e83565f8d","name_original":"삼부건강랜드보석사우나","address_original":"서울특별시 은평구 증산로21길 11 지하1층 삼부건강랜드보석사우나","source":"naver","external_id":"1269132393_375959397"},{"place_id":"4da4073a-c3b2-4ef8-853a-aec5c3f329c2","name_original":"성수탕","address_original":"서울특별시 성동구 성덕정19길 11","source":"naver","external_id":"1270565146_375375655"},{"place_id":"01892d98-8e3c-4d86-aa61-5a2d6ec9b3d7","name_original":"Ume-yu","address_original":"175-1, Iwatakichō, Shimogyo Ward, Kyoto, Japan","source":"google","external_id":"ChIJ9YjdGroIAWAR-MhOlVbFUQs"},{"place_id":"7fde88ea-e46b-4d48-be8d-9026b19aa8a3","name_original":"송도해수온천 송해온","address_original":"인천광역시 연수구 인천타워대로197번길 16 리치센트럴 지하1층 B102호","source":"naver","external_id":"1266353273_373890043"},{"place_id":"bfb6580b-8ef5-4bc3-a0c4-2682f495e962","name_original":"스파렉스 동묘","address_original":"서울특별시 종로구 지봉로 19 13층","source":"naver","external_id":"1270152465_375717317"},{"place_id":"122eb42f-123d-4cff-b665-641890dc2a8b","name_original":"스플라스 온천 워터파크","address_original":"충청남도 예산군 덕산면 온천단지3로 45-7","source":"naver","external_id":"1266564750_366939929"},{"place_id":"905b3fdb-9165-4810-afeb-58a5af81d1f9","name_original":"아난티 앳 부산 코브","address_original":"부산광역시 기장군 기장읍 기장해안로 268-32 아난티 앳 부산 코브","source":"naver","external_id":"1292283480_351978188"},{"place_id":"ca45c735-c8ee-4329-a80b-6eaccfd6cfa1","name_original":"아쿠아필드 고양","address_original":"경기도 고양시 덕양구 고양대로 1955 스타필드 고양 4층","source":"naver","external_id":"1268966537_376480044"},{"place_id":"d0e7b437-7895-4d50-b635-9411f3ca3905","name_original":"아쿠아필드 안성","address_original":"경기도 안성시 공도읍 서동대로 3930-39 스타필드 안성 3층","source":"naver","external_id":"1271475989_369941745"},{"place_id":"5da18c55-f459-4561-8aa8-28cac9817198","name_original":"아쿠아필드 하남","address_original":"경기도 하남시 미사대로 750 스타필드 하남 3층","source":"naver","external_id":"1272234173_375457968"},{"place_id":"5e62bc5c-a107-42c6-abd1-b768b034cf0b","name_original":"안단테 찜질방 사우나","address_original":"전라남도 장흥군 안양면 수문용곡로 270 1층, 2층, 3층","source":"naver","external_id":"1270428040_346381790"},{"place_id":"4467c03d-087e-45dc-91c1-b52b77e61fa3","name_original":"영빈호텔사우나","address_original":"서울특별시 중구 퇴계로56길 18","source":"naver","external_id":"1270055405_375629964"},{"place_id":"0563f6c6-edc6-4a1d-9718-4101de021c18","name_original":"영진목욕탕사우나","address_original":"서울특별시 양천구 목동중앙북로14길 6","source":"naver","external_id":"1268730446_375460860"},{"place_id":"d96c2dc1-367f-46ca-92b4-ce41bc51600f","name_original":"오레브핫스프링앤스파","address_original":"제주특별자치도 서귀포시 태평로 152 오레브핫스프링앤스파","source":"naver","external_id":"1265371602_332429932"},{"place_id":"74337566-118a-4b90-985f-07fcf2e93f6e","name_original":"오성건강랜드","address_original":"서울특별시 서대문구 모래내로 143 창덕에버빌","source":"naver","external_id":"1269174440_375694770"},{"place_id":"dfd3dbba-6883-4999-ae09-c1e3b4453316","name_original":"오션스파","address_original":"경기도 양주시 부흥로 1938 5층","source":"naver","external_id":"1270781462_377949282"},{"place_id":"6ce525c1-e771-4db8-9e2a-d3240d52c633","name_original":"온양온천랜드","address_original":"충청남도 아산시 삼동로28번길 46 온양온천랜드","source":"naver","external_id":"1270157859_367811282"},{"place_id":"51aa7ebd-a46f-40a4-8ba5-12c4a8d02c59","name_original":"우리유황온천","address_original":"서울특별시 광진구 자양로5길 33 지하2층","source":"naver","external_id":"1270842251_375309805"},{"place_id":"4d0cad9e-9a24-4890-a3f0-40a05e243be6","name_original":"우영탕","address_original":"서울특별시 강북구 삼양로92길 23","source":"naver","external_id":"1270183730_376366135"},{"place_id":"87b98972-e7e3-4f91-8bd8-665da1aaa9e8","name_original":"우이령불가마주쉼사우나","address_original":"서울특별시 강북구 삼양로179길 212-22 주쉼사우나","source":"naver","external_id":"1270058562_376708465"},{"place_id":"ce21515f-f766-4dc5-a9a5-487070a6d240","name_original":"그랜드워커힐서울","address_original":"서울특별시 광진구 광장동 22-1 그랜드워커힐 서울","source":"naver","external_id":"https://www.walkerhill.com/grandwalkerhillseoul/kr/"},{"place_id":"0b839c2c-16c4-4816-ac78-41b079dde870","name_original":"히든베이호텔","address_original":"전남 여수시 신월로 496-25","source":"naver","external_id":"https://www.hiddenbay.co.kr/"},{"place_id":"2cffdfdf-17e5-4b4c-a73d-0793b3c3e97b","name_original":"백제불한증막 인삼사우나","address_original":"서울특별시 송파구 백제고분로 293 1층~B3층","source":"naver","external_id":"1270988960_375028918"},{"place_id":"558503e4-0e9a-4703-823b-601202cf2cad","name_original":"쉐르빌사우나","address_original":"서울특별시 성동구 무학로6길 50","source":"naver","external_id":"1270347875_375646833"},{"place_id":"78998a61-18d9-4228-aa25-65849fa91845","name_original":"신북온천 리조트","address_original":"경기도 포천시 신북면 청신로 571","source":"naver","external_id":"1271042486_379741059"},{"place_id":"c1dc05fb-3293-407c-82cc-85b45a5e3028","name_original":"트리니티스파 신세계백화점센텀시티점","address_original":"부산광역시 해운대구 센텀남대로 35 신세계백화점센텀시티점10F","source":"naver","external_id":"1291302407_351691761"},{"place_id":"abc2ccfc-b772-48e2-864d-7a9348d4992d","name_original":"안동학가산온천","address_original":"경상북도 안동시 서후면 학가산온천길 14","source":"naver","external_id":"1286482231_365892946"},{"place_id":"03a3e237-4e4d-461a-9511-272083addc82","name_original":"통도참숯가마","address_original":"경상남도 양산시 상북면 공원로 291","source":"naver","external_id":"1290445632_354203353"},{"place_id":"6915d330-bb93-4d64-bf55-f302050f0149","name_original":"디오션 스파&사우나","address_original":"전라남도 여수시 소호로 295 콘도 B2","source":"naver","external_id":"1276439655_347324504"},{"place_id":"48cd5f1b-1215-45fc-bdfc-e596ae9d9430","name_original":"오라카이 청계산 호텔 사우나","address_original":"서울특별시 서초구 청계산로9길 1-7 지하1층","source":"naver","external_id":"1270547297_374490135"},{"place_id":"0422e887-3dbd-4213-b70e-1fd5f2b8aeed","name_original":"옥정스파24시사우나","address_original":"경기도 양주시 옥정동로7다길 62 대길프라자 8층 옥정스파24시사우나","source":"naver","external_id":"1270928125_378202275"},{"place_id":"b53ef065-b516-4927-82e9-4ed2d5459b2b","name_original":"온양관광호텔","address_original":"충청남도 아산시 온천대로 1459","source":"naver","external_id":"1269996927_367834700"},{"place_id":"76436113-4ab1-40d0-a069-87976b81cfea","name_original":"스파마린","address_original":"부산광역시 해운대구 마린시티2로 33 제니스스퀘어 상가 지하1층 스파마린","source":"naver","external_id":"1291443834_351563961"},{"place_id":"5d9f65bb-1acc-47d8-929e-0ce180d3a7bc","name_original":"스파앳홈 T2 인천공항 제2터미널점","address_original":"인천광역시 중구 제2터미널대로 446 인천공항제2터미널 지하1층 서편","source":"naver","external_id":"1264331770_374690648"},{"place_id":"bd79fa67-8fb4-4a64-9d1b-61844ace660f","name_original":"소노캄 여수","address_original":"전라남도 여수시 오동도로 111 1층 셰프스키친","source":"naver","external_id":"1277547225_347419663"},{"place_id":"a219e9b4-92e0-442a-a235-cc6382e8e0c7","name_original":"석천24시사우나","address_original":"경기도 의정부시 의정로40번길 21","source":"naver","external_id":"1270363564_377365582"},{"place_id":"f254e4d9-cec3-49ad-936e-8d703ffd9b99","name_original":"원성탕","address_original":"충청남도 천안시 동남구 원거리6길 25","source":"naver","external_id":"1271583249_368009169"},{"place_id":"704495e7-3ef5-4ad4-8a03-35e8f3b4e47d","name_original":"유성온천대온탕","address_original":"대전광역시 유성구 온천로 33","source":"naver","external_id":"1273416082_363558005"},{"place_id":"0c7bd022-d8eb-4717-86c1-767939a7b8e4","name_original":"제주온쉼","address_original":"제주특별자치도 제주시 조천읍 조천3길 17","source":"naver","external_id":"1266335095_335361348"},{"place_id":"1dcd598e-9b2a-4ef5-9cea-6e8029972b2b","name_original":"진천스카이사우나","address_original":"충청북도 진천군 진천읍 포석길 17","source":"naver","external_id":"1274377605_368579892"},{"place_id":"976f42ab-3a54-4b21-89e6-aeae48ceeaac","name_original":"청춘목욕탕","address_original":"경기도 성남시 분당구 내정로 29 금곡프라자빌딩 지하1층","source":"naver","external_id":"1271145117_373627869"},{"place_id":"d029b609-ca00-4672-a3e8-5a54eea367ae","name_original":"태화강참숯가마","address_original":"울산광역시 울주군 언양읍 대암둔기로 82 태화강참숯가마","source":"naver","external_id":"1291840651_355487187"},{"place_id":"8c6cd963-fc0f-4f9c-ba45-0dcb7848836c","name_original":"하이디하우스","address_original":"서울특별시 서초구 성촌4길 11","source":"naver","external_id":"1270218022_374670040"},{"place_id":"77333149-25f9-4d9f-a644-6272f57079ea","name_original":"할매탕","address_original":"부산광역시 해운대구 중동2로10번길 7","source":"naver","external_id":"1291649033_351631355"},{"place_id":"0cd62b6d-a424-4866-bc2a-b5d62e36df9b","name_original":"혜우사우나","address_original":"서울특별시 서대문구 신촌역로 10 B2 혜우사우나","source":"naver","external_id":"1269430699_375576359"},{"place_id":"dee6dbaa-f2f3-4d82-8687-11cf5b9a9d4b","name_original":"휘경인삼사우나","address_original":"서울특별시 동대문구 망우로 123 휘경인삼사우나","source":"naver","external_id":"1270666134_375917142"},{"place_id":"092e97d7-5c77-4c10-9797-9f8a8b7cdc25","name_original":"풍림24시불가마사우나","address_original":"서울특별시 마포구 마포대로 127","source":"naver","external_id":"1269520800_375459649"},{"place_id":"43c80382-d442-472c-a782-caea9b0927e3","name_original":"율암온천","address_original":"경기도 화성시 팔탄면 온천로 434-14","source":"naver","external_id":"1268821441_371521931"},{"place_id":"d97f24a0-e760-4584-bb97-7c7fbe196c74","name_original":"유성온천불가마사우나","address_original":"대전광역시 유성구 계룡로113번길 76","source":"naver","external_id":"1273450365_363566998"},{"place_id":"3c2ceb88-2cc1-4a24-b76b-d374175ce53c","name_original":"이천 테르메덴","address_original":"경기도 이천시 모가면 사실로 984","source":"naver","external_id":"1274460406_371950683"},{"place_id":"a8f1f26a-f5a0-4605-905e-cda44a587c27","name_original":"파주가야랜드","address_original":"경기도 파주시 법원읍 사임당로 674","source":"naver","external_id":"1268566232_378512074"},{"place_id":"8ffe2725-e35c-4e15-9b5c-059d6d03968d","name_original":"프라임노다지사우나","address_original":"서울특별시 광진구 광나루로56길 5 프라임프라자 지하2층","source":"naver","external_id":"1270961825_375368106"},{"place_id":"aba7646f-5599-47a4-bd26-4800c8e1b192","name_original":"하이렉스파불한증막사우나","address_original":"서울특별시 노원구 노원로1길 67","source":"naver","external_id":"1270837922_376207151"},{"place_id":"19f0620e-792a-4932-a5d1-6fbd8ae4f6ea","name_original":"Living Hotel Großer Kurfürst","address_original":"11 - 12 Neue Roßstraße, Mitte, Berlin, Germany","source":"google","external_id":"ChIJSdgfZiZOqEcRprUhl_atQJs"},{"place_id":"4482da09-b35e-43f1-a2ac-c9bfa1d9a85d","name_original":"힐스파","address_original":"부산광역시 해운대구 달맞이길117번길 11 힐스파","source":"naver","external_id":"1291752684_351584673"},{"place_id":"c8178237-64ac-4f28-824f-f8f2e7926990","name_original":"월문온천휴양지","address_original":"경기도 화성시 만세구 팔탄면 버들로1597번길 5","source":"naver","external_id":"1268765974_371145339"},{"place_id":"42c1cf9a-28c1-4d00-a807-1526ecd63c3c","name_original":"조선 팰리스 서울 강남","address_original":"서울특별시 강남구 테헤란로 231 센터필드타워 웨스트동","source":"naver","external_id":"1270411011_375029272"},{"place_id":"6e8342fe-e7b5-4c92-98d8-47bc0dab2470","name_original":"척산온천휴양촌","address_original":"강원특별자치도 속초시 관광로 327","source":"naver","external_id":"1285407098_381902163"},{"place_id":"658e982d-41f7-4d76-98c3-ef9dea4afc6c","name_original":"초정약수원탕","address_original":"충청북도 청주시 청원구 내수읍 미원초정로 1357","source":"naver","external_id":"1276003601_367203757"},{"place_id":"bfb91c7d-6545-4aac-860d-bab8f390f86c","name_original":"해미안녹차해수사우나","address_original":"제주특별자치도 제주시 일주서로 7353","source":"naver","external_id":"1264322560_334938033"},{"place_id":"004a435b-b6b3-443e-861c-3a44cf81356a","name_original":"웨스틴 조선 서울","address_original":"서울특별시 중구 소공로 106","source":"naver","external_id":"1269800462_375644687"},{"place_id":"5b6a9a8c-e624-4161-b50a-9b9f7b3acb4b","name_original":"유성온천사이언스","address_original":"대전광역시 유성구 온천로 60 유성사이언스타운 2층","source":"naver","external_id":"1273444540_363547421"},{"place_id":"f541d6a8-7964-4617-8fac-31db4cfa965f","name_original":"일죽목욕탕","address_original":"경기도 안성시 일죽면 주래본죽로 6","source":"naver","external_id":"1274750940_370942372"},{"place_id":"35af5049-2a00-4de6-9ec1-f591e05880aa","name_original":"주신사우나","address_original":"서울특별시 중구 마장로9길 33","source":"naver","external_id":"1270193775_375697629"},{"place_id":"7843748f-f018-4af8-83b7-9293a0435e0a","name_original":"스파바이록시땅앳파크로쉬","address_original":"강원특별자치도 정선군 북평면 중봉길 9-12 파크로쉬","source":"naver","external_id":"1286110656_374749147"},{"place_id":"df948f6a-f514-4e6b-b3fa-7462efbdf873","name_original":"프리마스파","address_original":"서울특별시 강남구 도산대로102길 10","source":"naver","external_id":"1270529789_375239270"},{"place_id":"0a2ca23c-39ac-47e6-b123-63ce63d16745","name_original":"한별불가마사우나","address_original":"서울특별시 강동구 동남로75길 13-10","source":"naver","external_id":"1271550263_375539127"},{"place_id":"19303c83-cd42-484c-bb70-1b62a64ed10c","name_original":"해피황토사우나","address_original":"서울특별시 은평구 갈현로3길 15","source":"naver","external_id":"1269085773_376004215"},{"place_id":"3e337352-714e-48e5-90bb-5159611e1f95","name_original":"호텔탑스텐 금진온천","address_original":"강원특별자치도 강릉시 옥계면 헌화로 455-34 호텔탑스텐 1층","source":"naver","external_id":"1290526977_376543761"},{"place_id":"6302208e-a00a-4d59-bf0e-89775b54796a","name_original":"코오롱 호텔","address_original":"경상북도 경주시 불국로 289-17","source":"naver","external_id":"1293219124_357879333"},{"place_id":"2da01557-42e5-4bf6-b1cf-7e7a95d0c1be","name_original":"유라이크","address_original":"서울특별시 용산구 청파로45길 19 5층","source":"naver","external_id":"1269694199_375442018"},{"place_id":"d18a5bf4-cfb0-4ae6-85a3-4a4971639777","name_original":"천성산온천레포츠","address_original":"경상남도 양산시 평산북2길 28","source":"naver","external_id":"1291535631_353847887"},{"place_id":"63e858c2-8042-45d1-ac96-9055add92a30","name_original":"유진사우나","address_original":"서울특별시 서대문구 세무서5길 35","source":"naver","external_id":"1269448101_375915241"},{"place_id":"2893c8cb-2cc3-4d3c-ae22-28471448fa68","name_original":"장흥 참숯가마","address_original":"경기도 양주시 장흥면 권율로 400","source":"naver","external_id":"1269596321_377446867"},{"place_id":"73b89671-505c-4476-be66-a9c87a006806","name_original":"주심유황참숯가마","address_original":"경기도 하남시 초광로 169","source":"naver","external_id":"1271750984_375354632"},{"place_id":"7c0d4d19-bc69-44dc-b2d5-30ce1adcbede","name_original":"한신옥사우나","address_original":"서울특별시 성동구 왕십리로31나길 18","source":"naver","external_id":"1270282292_375630198"},{"place_id":"0eac2c4e-2245-4455-ad4a-c0f86f47380d","name_original":"허심청","address_original":"부산광역시 동래구 온천장로107번길 32 허심청","source":"naver","external_id":"1290826866_352211495"},{"place_id":"ccb05800-0586-468f-ae5c-4464de50df15","name_original":"위례파크 사우나","address_original":"경기도 성남시 수정구 위례광장로 19 아이페리온 지하1층","source":"naver","external_id":"1271405888_374657937"},{"place_id":"f782dc13-c8c3-4873-81a8-e81f664b5e5f","name_original":"천지사우나","address_original":"경상북도 경주시 금성로259번길 27","source":"naver","external_id":"1292042041_358406941"},{"place_id":"3e5c5182-d04f-4781-9885-a662304df0b6","name_original":"클럽디오아시스 스파&워터파크","address_original":"부산광역시 해운대구 달맞이길 30 엘시티","source":"naver","external_id":"1291684820_351600560"},{"place_id":"924e2423-d068-40c5-a4f1-3f9031565942","name_original":"송파파크하비오워터킹덤워터파크&찜질스파","address_original":"서울특별시 송파구 송파대로 111 202동 지하1층","source":"naver","external_id":"1271247596_374802483"},{"place_id":"6a46975e-03e7-4003-b4c6-662fa3db5b21","name_original":"필례 게르마늄 온천","address_original":"강원특별자치도 인제군 인제읍 필례약수길 72","source":"naver","external_id":"1283696643_380764094"},{"place_id":"6d985d61-0a3f-4504-af04-aa096692cd57","name_original":"홍삼스파 참숯가마 사우나","address_original":"경기도 파주시 탄현면 갈현리","source":"naver","external_id":"1267164076_377744576"},{"place_id":"dc98375b-d9f0-4f3c-9256-6df1bfb90b45","name_original":"아라고나이트 고온천","address_original":"제주특별자치도 서귀포시 안덕면 산록남로762번길 71","source":"naver","external_id":"1263923592_333030342"},{"place_id":"59598b27-f483-456a-ba23-6fafc68f06da","name_original":"제일유황온천","address_original":"경기도 포천시 일동면 화동로 1210","source":"naver","external_id":"1273286375_379675845"},{"place_id":"04a4e31b-a044-4343-b721-774713545416","name_original":"죽전누리사우나","address_original":"경기도 용인시 기흥구 죽전로 20 누리에뜰 A동 지하 1층","source":"naver","external_id":"1271104158_373203024"},{"place_id":"9588f7cc-63d1-4ba0-abd0-53afaae6bb49","name_original":"클럽케이서울","address_original":"서울특별시 강남구 선릉로 524 지하 1층, 2층","source":"naver","external_id":"1270482775_375064001"},{"place_id":"17875739-e6c9-414d-80ff-e3c550e99bbc","name_original":"한화리조트 산정호수 온천","address_original":"경기도 포천시 영북면 산정호수로 402 산정호수한화콘도미니엄","source":"naver","external_id":"1273144505_380655081"},{"place_id":"8722bf99-9ba7-429c-8fe7-968604bf9ce2","name_original":"현대월드대중사우나","address_original":"서울특별시 양천구 목동서로 77 현대월드타워 지하 118호","source":"naver","external_id":"1268780154_375359724"},{"place_id":"a39ef875-2354-401b-9c02-ce961e74744d","name_original":"황금스파","address_original":"서울특별시 중구 청계천로 400 롯데캐슬베네치아","source":"naver","external_id":"1270205583_375708889"},{"place_id":"f8fd35dd-4eff-413e-85ec-e9b337cc3798","name_original":"힐튼호텔 경주","address_original":"경상북도 경주시 보문로 484-7","source":"naver","external_id":"1292856989_358399949"},